,Resturant,City,State,Date,Dave Score,Fan Score,Number of OneBite Reviews,Yelp Stars,Number of Yelp Reviews,Location,Links,Latitude,Longitude
0,Dicey's Tavern,Nashville, TN,22,7.7,0.0,1,4.5,85,"425 Chestnut St, Nashville, TN",https://onebite.app/restaurant/diceys-tavern-nashville-tn-308b6715,36.1440689,-86.76803799999999
1,Manny's House of Pizza,Nashville, TN,2,7.9,8.0,54,4.5,180,"15 Arcade Building, Nashville, TN",https://onebite.app/restaurant/mannys-house-of-pizza-nashville-tn-3edd5b88,36.1626638,-86.7816016
2,Nicky's Coal Fired,Nashville, TN,3,7.6,7.4,23,4,260,"5026 Centennial Blvd, Nashville, TN",https://onebite.app/restaurant/nickys-coal-fired-nashville-tn-935b3dfe,36.162462,-86.84871299999999
3,Midnight Oil,Nashville, TN,4,6.4,8.1,32,4.5,72,"1312 51st Ave N, Nashville, TN",https://onebite.app/restaurant/midnight-oil-nashville-tn-4a72c8b8,36.1617837,-86.84909139999999
4,Krust ,Tavernier, FL,5,7.7,0.0,1,5,11,"91865 Overseas Hwy, Tavernier, FL",https://onebite.app/restaurant/krust-tavernier-fl-84644abd,25.009054,-80.51702689999999
5,No Name Pub,Big Pine Key, FL,1/20/23,3.8,0.0,1,3.5,623,"30813 Watson Blvd, Big Pine Key, FL",https://onebite.app/restaurant/no-name-pub-big-pine-key-fl-6a13c9d5,24.6981564,-81.35122609999999
6,Coast to Coast Pizza Company,Marathon, FL,1/19/23,7.7,9.1,6,4,15,"61 53rd St, Marathon, FL",https://onebite.app/restaurant/coast-to-coast-pizza-company-marathon-fl-8e17ea6b,24.7149204,-81.0770611
7,Enrico's Pizza Islamorada,Tavernier, FL,1/18/23,6.7,7.2,16,4,139,"20 High Point Rd, Tavernier, FL",https://onebite.app/restaurant/enricos-pizza-islamorada-tavernier-fl-a4e8e4d3,24.9805696,-80.5494658
8,Pedroso's Pizza,Austin, TX,1/16/23,7.7,8.4,24,5,112,"8315 Burnet Rd, Austin, TX",https://onebite.app/restaurant/pedrosos-pizza-austin-tx-1f7a38c9,30.3639017,-97.7283884
9,Sammataro,Austin, TX,1/13/23,7.9,8.5,24,4.5,61,"1108 E 12th st., Austin, TX",https://onebite.app/restaurant/sammataro-austin-tx-e160f487,30.2726561,-97.7282259
10,Via 313 Pizza,Austin, TX,1/12/23,7.5,7.8,36,4.5,470,"96 Rainey St, Austin, TX",https://onebite.app/restaurant/via-313-pizza-austin-tx-707209ef,30.2608129,-97.7382116
11,Squared Up Pizza,Tucson, AZ,1/11/23,7.6,7.8,6,4.5,27,"5870 E Broadway Blvd, Tucson, AZ",https://onebite.app/restaurant/squared-up-pizza-tucson-az-d44dfe1b,32.2192052,-110.8653504
12,Via Della Slice Shop,Phoenix, AZ,1/10/23,7.9,8.5,27,4.5,82,"222 N 5th Ave, Phoenix, AZ",https://onebite.app/restaurant/via-della-slice-shop-phoenix-az-1436cdcc,33.4509649,-112.080425
13,Frank Pepes of Plantation,Plantation, FL,1/9/23,7.2,7.5,4,3.5,80,"341 N University Dr, Plantation, FL",https://onebite.app/restaurant/frank-pepes-of-plantation-plantation-fl-3c156d96,26.1259068,-80.2572047
14,Goodfella's Pizza,Jupiter, FL,1/6/23,7.5,7.8,28,4,57,"103 US-1, Jupiter, FL",https://onebite.app/restaurant/goodfellas-pizza-jupiter-fl-67ff0c6c,26.9325552,-80.0774735
15,Vinny's Pizza,Jupiter, FL,1/5/23,7.3,7.4,18,4,140,"6671 W Indiantown Rd, Jupiter, FL",https://onebite.app/restaurant/vinnys-pizza-jupiter-fl-3ba29a35,26.9358673,-80.1355104
16,Blue Springs Pizza,Orange City, FL,1/5/23,6.8,7.4,8,3.5,84,"501 N Volusia Ave, Orange City, FL",https://onebite.app/restaurant/blue-springs-pizza-orange-city-fl-d184800d,28.9524502,-81.2991282
17,The Drexel,Miami Beach, FL,1/3/23,6.8,0.0,1,4.5,31,"1436 Drexel Ave, Miami Beach, FL",https://onebite.app/restaurant/the-drexel-miami-beach-fl-4c66552f,25.7868328,-80.1331226
18,Toppers Pizza Place,Camarillo, CA,1/2/23,6.6,7.5,15,4,495,"425 Arneill Rd, Camarillo, CA",https://onebite.app/restaurant/toppers-pizza-place-camarillo-ca-5c5d9ff7,34.2213824,-119.0393048
19,Tony's Pizza Bros,Camarillo, CA,12/29/22,7.1,7.3,2,4,49,"31 N Lewis Rd, Camarillo, CA",https://onebite.app/restaurant/tonys-pizza-bros-camarillo-ca-81e70ced,34.216495,-119.034786
20,Jeff's Pizza,East Providence, RI,12/27/22,8.1,8.2,34,4.5,93,"127 Waterman Ave, East Providence, RI",https://onebite.app/restaurant/jeffs-pizza-east-providence-ri-d279cdaf,41.8234395,-71.37415
21,Pizza Marvin,Providence, RI,12/26/22,8.2,8.3,22,4.5,84,"468 Wickenden St, Providence, RI",https://onebite.app/restaurant/pizza-marvin-providence-ri-69039999,41.8204224,-71.3938256
22,Pizza J,Providence, RI,12/23/22,6.8,8.0,34,4,290,"967 Westminster St, Providence, RI",https://onebite.app/restaurant/pizza-j-providence-ri-cef5024a,41.8175975,-71.4244092
23,Nellies Place,Waldwick, NJ,12/22/22,7.9,7.7,55,3.5,290,"9 Franklin Tpke, Waldwick, NJ",https://onebite.app/restaurant/nellies-place-waldwick-nj-f3cd67e0,41.0085436,-74.1179088
24,Nanuet Restaurant,Nanuet, NY,12/21/22,7.2,8.1,6,3.5,97,"211 Main St, Nanuet, NY",https://onebite.app/restaurant/nanuet-restaurant-nanuet-ny-708cc623,41.0894016,-74.0136947
25,Nanuet Hotel & Restaurant,Nanuet, NY,12/20/22,7.3,8.1,35,3.5,145,"132 Main St, Nanuet, NY",https://onebite.app/restaurant/nanuet-hotel-and-restaurant-nanuet-ny-8ba68e17,41.0925427,-74.0123622
26,Casaletto Pizzeria,Sleepy Hollow, NY,12/19/22,7.1,0.0,1,4.5,3,"70 Beekman Ave, Sleepy Hollow, NY",https://onebite.app/restaurant/casaletto-pizzeria-sleepy-hollow-ny-0ae1c7ae,41.0843952,-73.8613637
27,Beekman Ale House,Sleepy Hollow, NY,12/16/22,7.4,8.6,39,5,68,"92 Beekman Ave, Sleepy Hollow, NY",https://onebite.app/restaurant/beekman-ale-house-sleepy-hollow-ny-d4e7ac37,41.0840937,-73.8622711
28,Norcina,New City, NY,12/15/22,7.2,8.3,26,4,184,"186 N Main St, New City, NY",https://onebite.app/restaurant/norcina-new-city-ny-f83a9385,41.1558141,-73.98548219999999
29,The Mountain House,Sparkill, NY,12/14/22,8.2,8.1,45,4,157,"333 Rt 340, Sparkill, NY",https://onebite.app/restaurant/the-mountain-house-sparkill-ny-75114230,41.03382879999999,-73.9287745
30,Vinny's Pizza,Dekalb, IL,12/13/22,5.8,6.6,12,3.5,90,"221 W Lincoln Hwy, Dekalb, IL",https://onebite.app/restaurant/vinnys-pizza-dekalb-il-fc846712,41.93122,-88.75913279999999
31,Doughbrik's Pizza,West Hollywood, CA,12/12/22,6.4,8.1,5,2,9,"8363 Sunset Blvd, West Hollywood, CA",https://onebite.app/restaurant/doughbriks-pizza-west-hollywood-ca-8837883c,34.0957425,-118.372133
32,Twin's Pizza,North Providence, RI,12/9/22,7.7,8.1,36,3.5,283,"1000 Mineral Spring Ave, North Providence, RI",https://onebite.app/restaurant/twins-pizza-north-providence-ri-d50999ed,41.8689598,-71.4227468
33,Annex the Lord Stanley's,DeKalb, IL,12/8/22,7.3,6.7,4,4,51,"142 E Lincoln Hwy, DeKalb, IL",https://onebite.app/restaurant/annex-the-lord-stanleys-dekalb-il-1e6c7778,41.9303893,-88.7532557
34,Pizza Pro's,DeKalb, IL,12/7/22,6.3,6.6,13,3.5,103,"1205 W Lincoln Hwy, DeKalb, IL",https://onebite.app/restaurant/pizza-pros-dekalb-il-4d3ecd69,41.9311659,-88.7758128
35,The Stubborn Brother Pizza B...,Toledo, OH,12/6/22,8.1,7.9,66,4,150,"3115 W Bancroft St, Toledo, OH",https://onebite.app/restaurant/the-stubborn-brother-pizza-bar-toledo-oh-2b600244,41.6626591,-83.61900410000001
36,Inky's Italian Foods,Toledo, OH,12/5/22,7.1,6.9,19,3.5,116,"3945 N Detroit Ave, Toledo, OH",https://onebite.app/restaurant/inkys-italian-foods-toledo-oh-440a3da3,41.6926774,-83.55267359999999
37,Home Slice Pizza,Toledo, OH,12/2/22,7.4,7.2,44,4,186,"28 S St Clair St, Toledo, OH",https://onebite.app/restaurant/home-slice-pizza-toledo-oh-6819c904,41.6468166,-83.53896220000001
38,Village Idiot,Maumee, OH,12/1/22,7.1,7.6,38,4,234,"309 Conant St, Maumee, OH",https://onebite.app/restaurant/village-idiot-maumee-oh-902704f3,41.5622988,-83.6538672
39,Pete's Pizza,Columbus, NJ,11/30/22,7.8,8.3,37,4.5,62,"2919 Route 206, Columbus, NJ",https://onebite.app/restaurant/petes-pizza-columbus-nj-cde0a0e6,40.0539885,-74.72648269999999
40,Kate & Al's Pizza,Columbus, NJ,11/29/22,7.4,8.0,54,4,78,"2919 Rte 206, Columbus, NJ",https://onebite.app/restaurant/kate-and-als-pizza-columbus-nj-e2dc946d,40.0539885,-74.72648269999999
41,Grant Street Cafe,Dumont, NJ,11/28/22,8.2,7.9,31,4,195,"25 Grant Ave, Dumont, NJ",https://onebite.app/restaurant/grant-street-cafe-dumont-nj-3945b5ac,40.948621,-73.9878238
42,Ledo Pizza,New York, NY,11/25/22,6.7,0.0,1,4.5,26,"243 W 38th St, New York, NY",https://onebite.app/restaurant/ledo-pizza-new-york-ny-2bfd7934,40.7541799,-73.9903776
43,Lillo's Tomato Pies,Hainesport, NJ,11/23/22,8.4,8.5,31,4.5,95,"2503 Marne Hwy, Hainesport, NJ",https://onebite.app/restaurant/lillos-tomato-pies-hainesport-nj-c1aa3f39,39.9812837,-74.8477419
44,Mateo's Tomato Pie & Restaur...,Hainesport, NJ,11/22/22,7.2,8.3,10,4.5,10,"1509 NJ-38, Hainesport, NJ",https://onebite.app/restaurant/mateos-tomato-pie-and-restaurant-hainesport-nj-d85f4862,39.98267939999999,-74.8093133
45,Mama's Meatballs & Pizzeria,Pennsauken, NJ,11/21/22,7.4,8.4,31,4,3,"2673 Haddonfield Rd, Pennsauken, NJ",https://onebite.app/restaurant/mamas-meatballs-and-pizzeria-pennsauken-nj-86bcf05b,39.97197389999999,-75.0232826
46,Bricco Coal Fired Pizza,Westmont, NJ,11/18/22,7.9,8.1,90,4,320,"128 Haddon Ave, Westmont, NJ",https://onebite.app/restaurant/bricco-coal-fired-pizza-westmont-nj-90d55ed1,39.91048199999999,-75.0499406
47,Brooklyn Original Pizzeria,Haddon Heights, NJ,11/17/22,7.3,8.1,60,4.5,127,"908 W Kings Hwy, Haddon Heights, NJ",https://onebite.app/restaurant/brooklyn-original-pizzeria-haddon-heights-nj-ab17076b,39.8837786,-75.067307
48,Benny's Pizza,West Chester, PA,11/16/22,7.3,7.7,44,4,49,"114 N Church St, West Chester, PA",https://onebite.app/restaurant/bennys-pizza-west-chester-pa-916fa0f7,39.9602386,-75.60688490000001
49,West Chester Pizza Cafe,West Chester, PA,11/15/22,8.1,8.1,29,4.5,35,"701 West Nields St, West Chester, PA",https://onebite.app/restaurant/west-chester-pizza-cafe-west-chester-pa-b07a9326,39.9489632,-75.6106783
50,Pizza West Chester,West Chester, PA,11/14/22,8.4,8.8,23,4.5,36,"136 East Market St, West Chester, PA",https://onebite.app/restaurant/pizza-west-chester-west-chester-pa-25cb2290,39.9606992,-75.6020693
51,Joe Bologna's,Lexington, KY,11/11/22,6.7,7.7,19,4,289,"120 W Maxwell St, Lexington, KY",https://onebite.app/restaurant/joe-bolognas-lexington-ky-3645b612,38.0437607,-84.5020015
52,Mad Mushroom Pizza,Lexington, KY,11/10/22,5.2,7.2,14,3.5,56,"561 S Broadway, Lexington, KY",https://onebite.app/restaurant/mad-mushroom-pizza-lexington-ky-42c58fc1,38.0446923,-84.5073894
53,LexLive,Lexington, KY,11/9/22,0.0,5.2,2,3,51,"301 S Broadway, Lexington, KY",https://onebite.app/restaurant/lexlive-lexington-ky-92c7522c,38.04786500000001,-84.50210600000001
54,Buonocores Brick Oven Pizza,Haledon, NJ,11/8/22,6.9,8.8,24,4.5,74,"389 Belmont Ave, Haledon, NJ",https://onebite.app/restaurant/buonocores-brick-oven-pizza-haledon-nj-da53f083,40.9361977,-74.1848377
55,Sun Ray Pizzeria,Little Falls, NJ,11/7/22,7.7,8.1,29,4,53,"440 Main St, Little Falls, NJ",https://onebite.app/restaurant/sun-ray-pizzeria-little-falls-nj-bdc1157d,40.8865655,-74.2427463
56,Lombardi's Bar & Restaurant,Cedar Grove, NJ,11/4/22,7.3,8.2,18,3.5,111,"599 Pompton Ave, Cedar Grove, NJ",https://onebite.app/restaurant/lombardis-bar-and-restaurant-cedar-grove-nj-91717720,40.8535188,-74.22891469999999
57,Teglia Pizza Bar ,Montclair, NJ,11/3/22,7.9,8.4,5,4.5,63,"438 Bloomfield Ave, Montclair, NJ",https://onebite.app/restaurant/teglia-pizza-bar-montclair-nj-82e6fece,40.81334,-74.217073
58,Blue Steel Pizza,Bloomfield, NJ,11/2/22,7.8,8.0,19,4.5,293,"285 Glenwood Ave, Bloomfield, NJ",https://onebite.app/restaurant/blue-steel-pizza-bloomfield-nj-e439e649,40.7923085,-74.19864919999999
59,Aubree's Pizzeria & Grill,Ypsilanti, MI,11/1/22,6.5,7.2,11,3.5,219,"39 E Cross St, Ypsilanti, MI",https://onebite.app/restaurant/aubrees-pizzeria-and-grill-ypsilanti-mi-1282a76b,42.2461379,-83.609521
60,College Pizza,State College, PA,10/31/22,1.8,5.5,15,3,28,"128 Locust Ln, State College, PA",https://onebite.app/restaurant/college-pizza-state-college-pa-67fa1133,40.7959186,-77.857985
61,Miami Slice,Miami, FL,10/28/22,8.6,9.0,13,4.5,52,"1335 NE Miami Ct, Miami, FL",https://onebite.app/restaurant/miami-slice-miami-fl-1f2d5b22,25.7877383,-80.1930776
62,Alton Food Hall,Miami Beach, FL,10/27/22,5.9,0.0,1,3.5,19,"955 Alton Rd, Miami Beach, FL",https://onebite.app/restaurant/alton-food-hall-miami-beach-fl-6bc43c6d,25.7803282,-80.140517
63,Red Zeppelin Pizza,Baton Rouge, LA,10/26/22,6.8,7.0,30,4,274,"4395 Perkins Rd, Baton Rouge, LA",https://onebite.app/restaurant/red-zeppelin-pizza-baton-rouge-la-c0f98f61,30.4174887,-91.1450105
64,Frank's Pizza,Houston, TX,10/25/22,5.4,7.1,83,4,987,"417 Travis St, Houston, TX",https://onebite.app/restaurant/franks-pizza-houston-tx-ed7f0936,29.761303,-95.362416
65,The Gypsy Poet,Houston, TX,10/24/22,7.8,8.5,70,5,485,"2404 Austin St, Houston, TX",https://onebite.app/restaurant/the-gypsy-poet-houston-tx-0ce781d6,29.7441444,-95.3703396
66,La Natural,Miami, FL,10/21/22,6.8,0.0,1,3.5,59,"7289 NW 2nd Ave, Miami, FL",https://onebite.app/restaurant/la-natural-miami-fl-e1614633,25.841881,-80.2005808
67,Slices New York,Orlando, FL,10/20/22,2.4,7.4,4,4,56,"8216 World Center Dr, Orlando, FL",https://onebite.app/restaurant/slices-new-york-orlando-fl-37c4dbcb,28.3566253,-81.4946355
68,Willie's New York Style Pizz...,Juno Beach, FL,10/19/22,8.1,7.9,31,4,127,"14731 US Hwy 1, Juno Beach, FL",https://onebite.app/restaurant/willies-new-york-style-pizza-juno-beach-fl-653b47fd,26.8926719,-80.0601685
69,L&L Pizza and Pasta New York...,Metuchen, NJ,10/18/22,7.2,8.5,41,4,41,"205 Main St, Metuchen, NJ",https://onebite.app/restaurant/landl-pizza-and-pasta-new-york-style-metuchen-nj-13dfcad9,40.5345796,-74.3601237
70,Nola’s Osteria & Pizza,Garwood, NJ,10/17/22,7.8,9.1,64,4.5,78,"304 N Ave, Garwood, NJ",https://onebite.app/restaurant/nolas-osteria-and-pizza-garwood-nj-5f8abcbb,40.6537203,-74.3232453
71,Vinnie’s Brick Oven Pan Pizz...,Millburn, NJ,10/14/22,8.3,8.4,41,4.5,45,"61 Main St, Millburn, NJ",https://onebite.app/restaurant/vinnies-brick-oven-pan-pizza-millburn-nj-d8e66118,40.7234149,-74.3072494
72,Rustique Pizza,Jersey City, NJ,10/13/22,7.9,7.6,29,3.5,493,"611 Jersey Ave, Jersey City, NJ",https://onebite.app/restaurant/rustique-pizza-jersey-city-nj-45b3a10d,40.7249324,-74.045733
73,Brower Commons,New Brunswick, NJ,10/12/22,1.8,0.0,1,2.5,10,"145 College Ave, New Brunswick, NJ",https://onebite.app/restaurant/brower-commons-new-brunswick-nj-7bb66001,40.5037364,-74.4517259
74,Daniel's Pizzeria,New Brunswick, NJ,10/11/22,7.2,7.9,20,4.5,70,"204 Easton Ave, New Brunswick, NJ",https://onebite.app/restaurant/daniels-pizzeria-new-brunswick-nj-968dd9b8,40.50044279999999,-74.4559859
75,Sal's Pizzeria,West New York, NJ,10/10/22,7.8,8.0,28,4,221,"6127 Bergenline Ave, West New York, NJ",https://onebite.app/restaurant/sals-pizzeria-west-new-york-nj-3c144a74,40.7904862,-74.0153175
76,San Giuseppe,Hoboken, NJ,10/7/22,7.4,7.5,11,4,335,"1320 Adams St, Hoboken, NJ",https://onebite.app/restaurant/san-giuseppe-hoboken-nj-f6882618,40.7540816,-74.0330412
77,Bread and Salt,Jersey City, NJ,10/6/22,8.1,8.6,17,4,148,"437 Palisade Ave, Jersey City, NJ",https://onebite.app/restaurant/bread-and-salt-jersey-city-nj-74b89508,40.7436465,-74.04476509999999
78,Leo's Grandevous,Hoboken, NJ,10/5/22,7.2,7.2,4,3.5,351,"200 Grand St, Hoboken, NJ",https://onebite.app/restaurant/leos-grandevous-hoboken-nj-028e7673,40.7398396,-74.03618600000001
79,Five Boys Fresh Pizza,New York, NY,10/4/22,3.8,6.9,3,3,4,"206 Varick St, New York, NY",https://onebite.app/restaurant/five-boys-fresh-pizza-new-york-ny-1cce1f81,40.7287529,-74.0050629
80,Napoli Pizza,New York, NY,10/3/22,6.6,0.0,1,4,6,"226 Varick St, New York, NY",https://onebite.app/restaurant/napoli-pizza-new-york-ny-c759ec1f,40.7290939,-74.005017
81,Spunto,New York, NY,9/30/22,7.8,7.6,15,4,465,"65 Carmine St, New York, NY",https://onebite.app/restaurant/spunto-new-york-ny-939f81dd,40.7298592,-74.0046957
82,Little Charli,New York, NY,9/29/22,8.1,8.9,3,5,10,"271 Bleecker St, New York, NY",https://onebite.app/restaurant/little-charli-new-york-ny-35fd0073,40.7315345,-74.0029626
83,Pin-Up Pizza,Las Vegas, NV,9/28/22,4.8,5.7,68,3.5,900,"3667 Las Vegas Blvd S, Las Vegas, NV",https://onebite.app/restaurant/pinup-pizza-las-vegas-nv-2c4eb295,36.1105922,-115.1721488
84,Pizzacake,Las Vegas, NV,9/27/22,6.1,6.8,23,4,243,"3475 S Las Vegas Blvd, Las Vegas, NV",https://onebite.app/restaurant/pizzacake-las-vegas-nv-7fffc6bc,36.1194161,-115.1707592
85,Cruze Farm Pizza Barn,Knoxville, TN,9/26/22,7.3,7.4,28,4.5,49,"2723 Asbury Rd, Knoxville, TN",https://onebite.app/restaurant/cruze-farm-pizza-barn-knoxville-tn-cfb40aeb,35.9524145,-83.82944479999999
86,Stan's Chitch's Pizza Restau...,Bound Brook, NJ,9/23/22,7.1,8.1,44,4,99,"14 Columbus Pl, Bound Brook, NJ",https://onebite.app/restaurant/stans-chitchs-pizza-restaurant-and-bar-bound-brook-nj-0592bf91,40.56151510000001,-74.5368761
87,Prima Pizza Kitchen,Somerville, NJ,9/22/22,7.7,8.2,96,4,129,"131 N Gaston Ave, Somerville, NJ",https://onebite.app/restaurant/prima-pizza-kitchen-somerville-nj-56adc4da,40.5714173,-74.60204139999999
88,Jojo's Tavern,Trenton, NJ,9/21/22,7.4,8.1,42,4,178,"2677 Nottingham Way, Trenton, NJ",https://onebite.app/restaurant/jojos-tavern-trenton-nj-6cde10b1,40.2361235,-74.6887337
89,Marcello's Pizza-Grill,Hamilton, NJ,9/20/22,8.1,7.9,38,4,56,"45 George Dye Rd, Hamilton, NJ",https://onebite.app/restaurant/marcellos-pizzagrill-hamilton-nj-8b8d6ece,40.2235766,-74.6461503
90,Marcello's Coal Fired Restau...,Bordentown, NJ,9/19/22,8.2,8.1,47,4,453,"206 Farnsworth Ave, Bordentown, NJ",https://onebite.app/restaurant/marcellos-coal-fired-restaurant-and-pizza-bordentown-nj-66999292,40.146831,-74.712605
91,Mulberry Street Pizzeria,Las Vegas, NV,9/16/22,6.8,6.9,7,4,85,"3000 S Las Vegas Blvd, Las Vegas, NV",https://onebite.app/restaurant/mulberry-street-pizzeria-las-vegas-nv-8d6fc92b,36.1341269,-115.167604
92,Palermo's,Bordentown, NJ,9/15/22,8.2,8.2,62,4,182,"674 Rte 206 S, Bordentown, NJ",https://onebite.app/restaurant/palermos-bordentown-nj-f088a6e5,40.1696685,-74.700068
93,Leo,Brooklyn, NY,9/14/22,5.1,8.2,11,4,79,"123 Havemeyer St, Brooklyn, NY",https://onebite.app/restaurant/leo-brooklyn-ny-4f99d0b1,40.7125596,-73.9567886
94,Ace's Pizza,Brooklyn, NY,9/13/22,7.4,8.4,23,4.5,129,"637 Driggs Ave, Brooklyn, NY",https://onebite.app/restaurant/aces-pizza-brooklyn-ny-801e55e8,40.7150648,-73.9583744
95,The Airliner,Iowa City, IA,9/12/22,6.4,6.5,18,3,123,"22 S Clinton St, Iowa City, IA",https://onebite.app/restaurant/the-airliner-iowa-city-ia-e1b86475,41.66055739999999,-91.5343583
96,Fini Pizza,Brooklyn, NY,9/9/22,7.9,8.2,8,4,56,"305 Bedford Ave, Brooklyn, NY",https://onebite.app/restaurant/fini-pizza-brooklyn-ny-0e522c20,40.7134558,-73.9617665
97,Valentine's Pizza,Brooklyn, NY,9/8/22,7.8,8.2,11,4,26,"1063 Bedford Ave, Brooklyn, NY",https://onebite.app/restaurant/valentines-pizza-brooklyn-ny-47469cfe,40.68753,-73.954427
98,Brooklyn DOP,Brooklyn, NY,9/7/22,8.1,8.4,16,4.5,28,"237 5th Ave, Brooklyn, NY",https://onebite.app/restaurant/brooklyn-dop-brooklyn-ny-38acc3b8,40.67521259999999,-73.98096819999999
99,Front Street Pizza,Brooklyn, NY,9/6/22,6.4,7.4,34,4,446,"80 Front St, Brooklyn, NY",https://onebite.app/restaurant/front-street-pizza-brooklyn-ny-77d83826,40.702346,-73.9892011
100,Andiamo Pizza,New York, NY,9/2/22,6.7,6.7,5,4.5,52,"818 6th Ave, New York, NY",https://onebite.app/restaurant/andiamo-pizza-new-york-ny-6015f847,40.7461489,-73.9902178
101,Michael Angelo's Restaurant ...,Fairfield, NJ,9/1/22,7.7,8.4,25,4,128,"286 US Hwy 46, Fairfield, NJ",https://onebite.app/restaurant/michael-angelos-restaurant-and-brick-oven-pizza-fairfield-nj-94d8c476,40.8777224,-74.2970168
102,Casa D Pizza,Denville, NJ,8/31/22,7.5,8.3,61,4,181,"276 E Main St, Denville, NJ",https://onebite.app/restaurant/casa-d-pizza-denville-nj-2c11a298,40.8837964,-74.4792598
103,Nicky’s Firehouse Italian Re...,Madison, NJ,8/30/22,7.6,7.9,20,3.5,157,"15 Central Ave, Madison, NJ",https://onebite.app/restaurant/nickys-firehouse-italian-restaurant-and-pizzeria-madison-nj-c46e4746,40.7590684,-74.4141126
104,Pomodoro Ristorante & Pizzer...,Morristown, NJ,8/29/22,7.5,7.0,30,4,218,"125 Morris St, Morristown, NJ",https://onebite.app/restaurant/pomodoro-ristorante-and-pizzeria-morristown-nj-3e24186d,40.7966799,-74.47543639999999
105,Suvio Pizzeria & Restaurant,Morristown, NJ,8/26/22,7.6,7.3,20,3,76,"83 Washington St, Morristown, NJ",https://onebite.app/restaurant/suvio-pizzeria-and-restaurant-morristown-nj-f84d3aac,40.7989968,-74.4855558
106,JFK Airport Terminal 7,Jamaica, NY,8/25/22,5.8,0.0,1,2,195,"Jfk International Airport, Jamaica, NY",https://onebite.app/restaurant/jfk-airport-terminal-7-jamaica-ny-481a3175,40.6413113,-73.7781383
107,Zazas Pizzeria,Chicago, IL,8/24/22,8.2,8.7,42,4.5,141,"3037 N Clark St, Chicago, IL",https://onebite.app/restaurant/zazas-pizzeria-chicago-il-3070e14c,41.9374459,-87.64848889999999
108,John's Pizzeria Ristorante &...,Chicago, IL,8/23/22,6.8,7.8,35,3.5,415,"2104 N Western Ave, Chicago, IL",https://onebite.app/restaurant/johns-pizzeria-ristorante-and-lounge-chicago-il-1c10e41e,41.9201054,-87.6877932
109,The StopAlong,Chicago, IL,8/22/22,7.8,8.1,31,4.5,278,"1812 N Milwaukee Ave, Chicago, IL",https://onebite.app/restaurant/the-stopalong-chicago-il-21cc4618,41.9143347,-87.68381959999999
110,Backyard Pizza and Raw Bar,Huntington, WV,8/19/22,7.1,7.8,20,4.5,167,"833 3rd Ave, Huntington, WV",https://onebite.app/restaurant/backyard-pizza-and-raw-bar-huntington-wv-4a442810,38.4215654,-82.4449009
111,Dough Bros Pizzeria & Sub Sh...,Chicago, IL,8/18/22,7.1,6.8,64,3.5,341,"400 N State St, Chicago, IL",https://onebite.app/restaurant/dough-bros-pizzeria-and-sub-shop-chicago-il-eb354b0e,41.889425,-87.6282785
112,O'Scugnizzo Pizzeria,Utica, NY,8/17/22,8.1,8.1,65,4,136,"614 Bleecker St, Utica, NY",https://onebite.app/restaurant/oscugnizzo-pizzeria-utica-ny-26ce139f,43.0988057,-75.22042119999999
113,Slice Pizzeria,Utica, NY,8/16/22,7.7,7.2,36,3,73,"2007 Genesee St, Utica, NY",https://onebite.app/restaurant/slice-pizzeria-utica-ny-5066389f,43.08621280000001,-75.26125929999999
114,Nina's Pizza,Utica, NY,8/15/22,7.3,7.2,37,4.5,104,"100 Genesee St, Utica, NY",https://onebite.app/restaurant/ninas-pizza-utica-ny-3d946739,43.1033977,-75.2278285
115,Twin Trees,East Syracuse, NY,8/12/22,6.2,0.0,1,2.5,35,"102 W Manlius St, East Syracuse, NY",https://onebite.app/restaurant/twin-trees-east-syracuse-ny-b9559bcf,43.0642143,-76.0713487
116,Pavone's Pizza,East Syracuse, NY,8/11/22,7.6,7.9,34,4,70,"5781 Bridge St, East Syracuse, NY",https://onebite.app/restaurant/pavones-pizza-east-syracuse-ny-72662429,43.0514897,-76.07123539999999
117,Mario & Salvo's,DeWitt, NY,8/10/22,7.6,7.8,48,4,115,"4326 E Genesee St, DeWitt, NY",https://onebite.app/restaurant/mario-and-salvos-dewitt-ny-22adcd2f,43.0349694,-76.06823299999999
118,Varsity Pizza,Syracuse, NY,8/9/22,6.5,6.9,35,3.5,116,"802 S Crouse Ave, Syracuse, NY",https://onebite.app/restaurant/varsity-pizza-syracuse-ny-800a11a4,43.041475,-76.136938
119,Francesca's Pizza & Italian ...,Liverpool, NY,8/8/22,7.4,7.3,28,4,174,"207 Oswego St, Liverpool, NY",https://onebite.app/restaurant/francescas-pizza-and-italian-kitchen-liverpool-ny-02a2c693,43.1005443,-76.2006287
120,Apizza Regionale,Syracuse, NY,8/5/22,6.8,8.1,67,4.5,318,"260 W Genessee St, Syracuse, NY",https://onebite.app/restaurant/apizza-regionale-syracuse-ny-249f58e0,43.0520634,-76.15465680000001
121,Avicolli's Restaurant,Liverpool, NY,8/4/22,7.3,7.7,28,3.5,149,"7839 Oswego Rd, Liverpool, NY",https://onebite.app/restaurant/avicollis-restaurant-liverpool-ny-d4755842,43.1502558,-76.23028599999999
122,Toss 'n' Fire Wood-Fired Piz...,North Syracuse, NY,8/3/22,7.2,7.1,28,4.5,174,"315 N Main St, North Syracuse, NY",https://onebite.app/restaurant/toss-n-fire-woodfired-pizza-north-syracuse-ny-8019b39f,43.1395357,-76.1287646
123,Paladino's Pizza,Syracuse, NY,8/2/22,7.5,7.6,42,4,81,"231 Northern Lights Plz, Syracuse, NY",https://onebite.app/restaurant/paladinos-pizza-syracuse-ny-99f5bc81,43.1108059,-76.1426176
124,Yard Sale Pizza,London, XGL,8/1/22,6.8,8.3,4,3.5,3,"54 Blackstock Road, London, XGL",https://onebite.app/restaurant/yard-sale-pizza-london-xgl-5c98db82,51.5635298,-0.1028224
125,The Chancellors,London, XGL,7/29/22,8.1,8.2,6,4,2,"25 Crisp Road, London, XGL",https://onebite.app/restaurant/the-chancellors-london-xgl-f1aff38b,51.4885586,-0.2269192
126,Delfino Pizzeria,London, XGL,7/27/22,6.6,7.9,2,4,45,"121a Mount Street, London, XGL",https://onebite.app/restaurant/delfino-pizzeria-london-xgl-2055f3cc,51.5100904,-0.1483367
127,The Breadstall,London, XGL,7/26/22,7.6,0.0,1,5,9,"Northcote Road, London, XGL",https://onebite.app/restaurant/the-breadstall-london-xgl-55001e26,51.4571892,-0.1656531
128,Bad Boy Pizza Society,London, null,7/25/22,7.1,7.4,4,,,"Earlham St, London, null",https://onebite.app/restaurant/bad-boy-pizza-society-london-2c027f3b,51.5137521,-0.1268522
129,Homeslice Neal's Yard,London, XGL,7/22/22,6.8,6.9,13,4.5,256,"13 Neal's Yard, London, XGL",https://onebite.app/restaurant/homeslice-neals-yard-london-xgl-af70467f,51.51473499999999,-0.1267547
130,Oliveto,London, XGL,7/21/22,7.4,7.5,2,4,54,"49 Elizabeth Street, London, XGL",https://onebite.app/restaurant/oliveto-london-xgl-48b527f9,51.4934159,-0.1508231
131,Gennaro's Pizza Parlor,Saratoga Springs, NY,7/20/22,7.1,7.1,51,4,172,"46 Marion Ave, Saratoga Springs, NY",https://onebite.app/restaurant/gennaros-pizza-parlor-saratoga-springs-ny-0c202b40,43.0913224,-73.7710902
132,World Pie,Bridgehampton, NY,7/19/22,7.5,5.5,9,3,209,"2402 Montauk Hwy, Bridgehampton, NY",https://onebite.app/restaurant/world-pie-bridgehampton-ny-e20da957,40.936372,-72.30449550000002
133,American Pie Pizzeria,Bridgehampton, NY,7/18/22,7.2,6.3,16,3.5,71,"2044 Montauk Hwy, Bridgehampton, NY",https://onebite.app/restaurant/american-pie-pizzeria-bridgehampton-ny-c6f6aace,40.9346961,-72.31685279999999
134,The Pizza Place,Bridgehampton, NY,7/15/22,4.2,0.0,1,3.5,9,"2123 Montauk Hwy, Bridgehampton, NY",https://onebite.app/restaurant/the-pizza-place-bridgehampton-ny-2b55a92b,40.9329182,-72.3135951
135,Founders Tavern,Southold, NY,7/14/22,5.4,0.0,1,4.5,74,"55500 Rte 25, Southold, NY",https://onebite.app/restaurant/founders-tavern-southold-ny-daa3b40a,41.0662365,-72.42281229999999
136,Grana,Jamesport, NY,7/13/22,7.7,7.3,6,4,341,"1556 Main Rd, Jamesport, NY",https://onebite.app/restaurant/grana-jamesport-ny-4aadab4a,40.9493022,-72.5823336
137,Lenny's Pizza & Bistro,Jamesport, NY,7/12/22,6.9,7.0,16,4,137,"1451 Main Rd, Jamesport, NY",https://onebite.app/restaurant/lennys-pizza-and-bistro-jamesport-ny-36db6afa,40.9470886,-72.5864253
138,Michelangelo Pizzeria,Mattituck, NY,7/11/22,7.3,6.4,9,3,81,"10095 Main Rd, Mattituck, NY",https://onebite.app/restaurant/michelangelo-pizzeria-mattituck-ny-b9d6e657,40.9862753,-72.5384141
139,Espresso North Fork,Mattituck, NY,7/8/22,6.8,6.3,5,4.5,17,"13500 Main Rd, Mattituck, NY",https://onebite.app/restaurant/espresso-north-fork-mattituck-ny-c7a18371,40.9920797,-72.5315976
140,Claudio's Pizza,Greenport, NY,7/7/22,7.3,7.7,8,4.5,12,"111 Main St, Greenport, NY",https://onebite.app/restaurant/claudios-pizza-greenport-ny-6de40ce9,41.1018043,-72.3590229
141,La Capricciosa Pizza,Greenport, NY,7/6/22,7.1,7.4,12,4,70,"135 3rd St, Greenport, NY",https://onebite.app/restaurant/la-capricciosa-pizza-greenport-ny-be4b9091,41.1009209,-72.3628611
142,1943 Pizza Bar,Greenport, NY,7/5/22,7.3,8.4,40,4.5,207,"308D Main St, Greenport, NY",https://onebite.app/restaurant/1943-pizza-bar-greenport-ny-f434d7d9,41.1040407,-72.359566
143,Shelter Island Slice,Shelter Island, NY,7/1/22,7.3,6.7,7,5,15,"3 N Ferry Rd, Shelter Island, NY",https://onebite.app/restaurant/shelter-island-slice-shelter-island-ny-91cf55c7,41.0669731,-72.3319686
144,Plaza Restaurant,Montauk, NY,6/30/22,7.9,7.9,5,2,2,"752 Montauk Hwy, Montauk, NY",https://onebite.app/restaurant/plaza-restaurant-montauk-ny-3cb44c26,41.0346305,-71.9438158
145,The Pizza Shop by Flour,Hoboken, NJ,6/29/22,8.2,9.0,23,4.5,47,"500 Jefferson St, Hoboken, NJ",https://onebite.app/restaurant/the-pizza-shop-by-flour-hoboken-nj-63f052f7,40.7436771,-74.0370993
146,Max and Leo's - Newton,Newton, MA,6/28/22,7.6,8.1,54,4.5,430,"325 Washington St, Newton, MA",https://onebite.app/restaurant/max-and-leos-newton-newton-ma-85f8a35b,42.3569627,-71.1870199
147,Stella's Pizza,Watertown, MA,6/27/22,7.8,7.8,33,4,193,"605 Mt Auburn St, Watertown, MA",https://onebite.app/restaurant/stellas-pizza-watertown-ma-1c184b7a,42.370662,-71.158417
148,For Pizza,Medford, MA,6/24/22,7.2,7.8,10,4,34,"51 High St, Medford, MA",https://onebite.app/restaurant/for-pizza-medford-ma-636a2f7d,42.4187615,-71.111092
149,Angela's Coal Fired Pizza,Saugus, MA,6/23/22,7.8,8.3,40,4,349,"880 Broadway Rt 1, Saugus, MA",https://onebite.app/restaurant/angelas-coal-fired-pizza-saugus-ma-ec8ae284,42.4698796,-71.02391519999999
150,The Square Deli,Everett, MA,6/22/22,8.3,8.6,14,4.5,76,"421 Broadway, Everett, MA",https://onebite.app/restaurant/the-square-deli-everett-ma-82313f24,42.3922628,-71.0347676
151,The Pleasant Cafe,Roslindale, MA,6/21/22,8.1,8.3,42,3.5,205,"4515 Washington St, Roslindale, MA",https://onebite.app/restaurant/the-pleasant-cafe-roslindale-ma-c07b938a,42.2787602,-71.136798
152,Casa Pizzeria,Ludlow, MA,6/20/22,7.9,8.8,59,4,73,"325 East St, Ludlow, MA",https://onebite.app/restaurant/casa-pizzeria-ludlow-ma-c7e361ea,42.1596778,-72.4737034
153,Red Rose,Springfield, MA,6/17/22,7.9,7.7,98,4,640,"1060 Main St, Springfield, MA",https://onebite.app/restaurant/red-rose-springfield-ma-e705e63f,42.0995806,-72.5854088
154,Little City Pizza,Avon, CT,6/16/22,7.9,8.5,60,4.5,245,"152 Simsbury Rd, Avon, CT",https://onebite.app/restaurant/little-city-pizza-avon-ct-982b064e,41.8200327,-72.8281919
155,New York Pizza,Danielson, CT,6/15/22,7.6,8.6,61,3.5,86,"8 Furnace St, Danielson, CT",https://onebite.app/restaurant/new-york-pizza-danielson-ct-71ec1124,41.8047711,-71.8838607
156,"I Love Frankie’s, Worcester’...",Worcester, MA,6/14/22,7.7,8.0,37,3.5,96,"90 Providence St, Worcester, MA",https://onebite.app/restaurant/i-love-frankies-worcesters-best-pizza-worcester-ma-89d1b7be,42.2519358,-71.7928305
157,Tabor Pizzeria,Morris Plains, NJ,6/13/22,7.9,7.5,41,4,144,"976 Tabor Rd, Morris Plains, NJ",https://onebite.app/restaurant/tabor-pizzeria-morris-plains-nj-53a71011,40.8632758,-74.4702849
158,Lulu Kitchen & Bar,Sag Harbor, NY,6/10/22,7.1,7.1,2,3,172,"126 Main St, Sag Harbor, NY",https://onebite.app/restaurant/lulu-kitchen-and-bar-sag-harbor-ny-d4924379,40.999868,-72.2957072
159,Il Buco al Mare,Amagansett, NY,6/9/22,7.7,0.0,1,3.5,46,"231 Main St, Amagansett, NY",https://onebite.app/restaurant/il-buco-al-mare-amagansett-ny-150bc1df,40.9757344,-72.1408273
160,Augy's Restaurant & Pizza,Boca Raton, FL,6/8/22,7.8,8.2,23,3.5,131,"1501 NW Boca Raton Blvd, Boca Raton, FL",https://onebite.app/restaurant/augys-restaurant-and-pizza-boca-raton-fl-3c3ccea0,26.3645323,-80.09055959999999
161,Joseph's Classic Market - Bo...,Boca Raton, FL,6/7/22,6.7,7.4,4,3.5,188,"6000 Glades Rd, Boca Raton, FL",https://onebite.app/restaurant/josephs-classic-market-boca-raton-boca-raton-fl-ba4f413b,26.3652588,-80.1327395
162,Pizza Ricca,Hollywood, FL,6/6/22,7.2,8.1,28,4.5,95,"5226 S State Road 7, Hollywood, FL",https://onebite.app/restaurant/pizza-ricca-hollywood-fl-2a3140ab,26.0563848,-80.2071635
163,Amelia's Brooklyn Pizza,Lighthouse Point, FL,6/3/22,6.8,7.5,18,4,76,"3650 N Federal Hwy, Lighthouse Point, FL",https://onebite.app/restaurant/amelias-brooklyn-pizza-lighthouse-point-fl-cfcbce39,26.2776249,-80.0963179
164,Kosta's Greek Eatery,Pompano Beach, FL,6/2/22,7.6,8.3,28,4.5,355,"1940 NE 49th St, Pompano Beach, FL",https://onebite.app/restaurant/kostas-greek-eatery-pompano-beach-fl-cf0d59f8,26.2913151,-80.0964851
165,Crust,East Elmhurst, NY,6/1/22,7.1,6.0,10,3,65,"LaGuardia Aiport Queens, East Elmhurst, NY",https://onebite.app/restaurant/crust-east-elmhurst-ny-a09652db,40.7769271,-73.8739659
166,Cafe Martorano,Fort Lauderdale, FL,5/31/22,8.8,8.9,6,3.5,652,"3343 E Oakland Park Blvd, Fort Lauderdale, FL",https://onebite.app/restaurant/cafe-martorano-fort-lauderdale-fl-165edf96,26.1678997,-80.1011345
167,Sammy's Woodfired Pizza And ...,Las Vegas, NV,5/27/22,2.4,5.2,11,3,239,"5757 Wayne Newton Blvd, Las Vegas, NV",https://onebite.app/restaurant/sammys-woodfired-pizza-and-grill-las-vegas-nv-478dea97,36.0827598,-115.1393547
168,Carmine's Pizza Kitchen - Ho...,Henderson, NV,5/26/22,7.3,7.4,34,4,314,"2520 W Horizon Ridge Pkwy, Henderson, NV",https://onebite.app/restaurant/carmines-pizza-kitchen-horizon-henderson-nv-f38836c8,36.0067171,-115.0968712
169,Lucia Pizza,New York, NY,5/25/22,7.8,8.5,22,4,60,"2201 Avenue X, New York, NY",https://onebite.app/restaurant/lucia-pizza-new-york-ny-576e2f39,40.593214,-73.948115
170,Dominic's II Pizza & Pasta,Boca Raton, FL,5/24/22,7.5,7.1,13,3.5,115,"9834 Glades Rd, Boca Raton, FL",https://onebite.app/restaurant/dominics-ii-pizza-and-pasta-boca-raton-fl-68d67161,26.3650631,-80.2002366
171,Louie Bossi's Ristorante Bar...,Fort Lauderdale, FL,5/23/22,6.4,8.2,4,4,"2,660","1032 E Las Olas Blvd, Fort Lauderdale, FL",https://onebite.app/restaurant/louie-bossis-ristorante-bar-pizzeria-fort-lauderdale-fl-851863a9,26.1190906,-80.13260869999999
172,Fresca Pizza & Pasta,Toronto, ON,5/18/22,7.4,7.4,18,4,148,"302 College Street, Toronto, ON",https://onebite.app/restaurant/fresca-pizza-and-pasta-toronto-on-e1192184,43.6578459,-79.4017337
173,Carlo's Bakery,Mississauga, ON,5/17/22,7.5,7.9,7,3,22,"167 Lakeshore Rd W, Mississauga, ON",https://onebite.app/restaurant/carlos-bakery-mississauga-on-c85c78e2,43.5480868,-79.5892531
174,Pizza Nostra,Mississauga, ON,5/16/22,8.0,8.9,16,4.5,42,"362 Lakeshore Road W, Mississauga, ON",https://onebite.app/restaurant/pizza-nostra-mississauga-on-5fcad2dc,43.5424628,-79.5960465
175,Revolver Pizza,Etobicoke, ON,5/13/22,6.8,8.2,21,4.5,39,"388 Royal York Road, Etobicoke, ON",https://onebite.app/restaurant/revolver-pizza-etobicoke-on-f4a264fa,43.6188811,-79.4997423
176,Sanremo Bakery,Etobicoke, ON,5/12/22,7.8,6.1,4,4.5,512,"374 Royal York Road, Etobicoke, ON",https://onebite.app/restaurant/sanremo-bakery-etobicoke-on-99d39333,43.6185491,-79.49969689999999
177,Conzo's Pizza,Toronto, ON,5/11/22,8.2,8.3,12,4.5,16,"1279 Bloor Street W, Toronto, ON",https://onebite.app/restaurant/conzos-pizza-toronto-on-6429a655,43.6582302,-79.4422233
178,Super Point,Toronto, ON,5/10/22,7.7,7.7,21,3.5,109,"184 Ossington Avenue, Toronto, ON",https://onebite.app/restaurant/super-point-toronto-on-df3b51fa,43.6483927,-79.4206823
179,Ambassador Pizza,Toronto, ON,5/9/22,7.3,7.7,7,4.5,9,"946 Bloor Street W, Toronto, ON",https://onebite.app/restaurant/ambassador-pizza-toronto-on-3b1f3803,43.6615827,-79.42823539999999
180,Becca's Restaurant & Lounge,Las Vegas, NV,5/7/22,6.9,7.4,8,4,163,"12656 Southern Highlands Pkwy, Las Vegas, NV",https://onebite.app/restaurant/beccas-restaurant-and-lounge-las-vegas-nv-e7afacfe,35.9588938,-115.1836821
181,Frank’s Pizza House,Toronto, ON,5/6/22,7.3,7.8,6,3.5,99,"1352 St Clair Avenue W, Toronto, ON",https://onebite.app/restaurant/franks-pizza-house-toronto-on-f9ab8069,43.6768229,-79.4493433
182,Pizzeria Badiali,Toronto, ON,5/5/22,8.3,8.7,29,4.5,55,"181 Dovercourt Road, Toronto, ON",https://onebite.app/restaurant/pizzeria-badiali-toronto-on-ca0246ef,43.6461154,-79.42314429999999
183,One Night Only Pizza,Toronto, ON,5/4/22,7.9,8.2,9,5,8,"581 Pape Avenue, Toronto, ON",https://onebite.app/restaurant/one-night-only-pizza-toronto-on-9ffde0b6,43.6750453,-79.3430131
184,Descendant Detroit Style Piz...,Toronto, ON,5/3/22,8.1,7.8,30,4.5,410,"1168 Queen Street E, Toronto, ON",https://onebite.app/restaurant/descendant-detroit-style-pizza-toronto-on-56319c0c,43.662889,-79.33240409999999
185,Pizza Gigi,Toronto, ON,5/2/22,7.0,6.0,11,3,78,"189 Harbord Street, Toronto, ON",https://onebite.app/restaurant/pizza-gigi-toronto-on-5a65966e,43.6616683,-79.408295
186,Blondies Pizza,Toronto, ON,4/29/22,6.8,6.8,7,3.5,23,"88 Ossington, Toronto, ON",https://onebite.app/restaurant/blondies-pizza-toronto-on-c07db470,43.6461287,-79.4197871
187,Bitondo's Pizzeria,Toronto, ON,4/28/22,7.5,7.0,21,4,158,"11 Clinton Street, Toronto, ON",https://onebite.app/restaurant/bitondos-pizzeria-toronto-on-ef10ab88,43.6541571,-79.413221
188,The Fourth Man In The Fire,Toronto, ON,4/27/22,7.4,7.5,10,4,37,"832 Dundas Street W, Toronto, ON",https://onebite.app/restaurant/the-fourth-man-in-the-fire-toronto-on-83073699,43.6517142,-79.4095093
189,Maker Pizza,Toronto, ON,4/26/22,6.1,7.6,38,4,267,"59 Cameron Street, Toronto, ON",https://onebite.app/restaurant/maker-pizza-toronto-on-c1b7799d,43.6501567,-79.39789739999999
190,North of Brooklyn Pizzeria,Toronto, ON,4/25/22,8.4,8.3,76,3.5,222,"650 1/2 Queen Street W, Toronto, ON",https://onebite.app/restaurant/north-of-brooklyn-pizzeria-toronto-on-3e829131,43.6468618,-79.4064787
191,Siamo,Miami Springs, FL,4/19/22,5.9,7.8,5,4.5,355,"17 Westward Dr, Miami Springs, FL",https://onebite.app/restaurant/siamo-miami-springs-fl-ea12ecfa,25.8215406,-80.2825893
192,Roman's Pizzeria,Miami Springs, FL,4/18/22,7.4,7.6,8,4,87,"391 N Royal Poinciana Blvd, Miami Springs, FL",https://onebite.app/restaurant/romans-pizzeria-miami-springs-fl-782918ca,25.8263144,-80.2875219
193,Pizzillo,Miami, FL,4/15/22,6.2,8.3,2,4,66,"7293 NW 36th St, Miami, FL",https://onebite.app/restaurant/pizzillo-miami-fl-d0987f37,25.8097145,-80.3154824
194,Star Chigua's Pizza Pizza Cu...,Hialeah, FL,4/14/22,5.1,7.5,2,4,15,"1570 W 43rd Pl, Hialeah, FL",https://onebite.app/restaurant/star-chiguas-pizza-pizza-cubana-hialeah-fl-6cc58b49,25.8609589,-80.31441219999999
195,Yeti's Snowballs and Pizza,Hialeah, FL,4/13/22,7.8,9.0,15,5,20,"401 E 65th St, Hialeah, FL",https://onebite.app/restaurant/yetis-snowballs-and-pizza-hialeah-fl-8df4e29d,25.8875697,-80.2859637
196,Groovy's,Miami Beach, FL,4/12/22,3.2,5.8,3,3.5,106,"938 Lincoln Rd, Miami Beach, FL",https://onebite.app/restaurant/groovys-miami-beach-fl-c91c41a7,25.790826,-80.1385406
197,The Boot Bar and Grill,New Orleans, LA,4/11/22,6.7,0.0,1,2.5,81,"1039 Broadway St, New Orleans, LA",https://onebite.app/restaurant/the-boot-bar-and-grill-new-orleans-la-62fc0fb5,29.9411151,-90.12344069999999
198,NOLA Pizza Co.,New Orleans, LA,4/8/22,7.4,8.3,27,4,69,"3001 Tchoupitoulas St, New Orleans, LA",https://onebite.app/restaurant/nola-pizza-co-new-orleans-la-40a95d91,29.9200497,-90.08121589999999
199,Big Easy Daiquiris,New Orleans, LA,4/7/22,2.4,5.0,16,4,96,"216 Bourbon St, New Orleans, LA",https://onebite.app/restaurant/big-easy-daiquiris-new-orleans-la-4e221d67,29.9549061,-90.06863659999999
200,Zee’s Pizzeria,New Orleans, LA,4/6/22,7.7,8.3,21,5,47,"3914 Baronne St, New Orleans, LA",https://onebite.app/restaurant/zees-pizzeria-new-orleans-la-3e971381,29.9288419,-90.09722459999999
201,Pizza Delicious,New Orleans, LA,4/5/22,7.8,7.8,63,4.5,723,"617 Piety St, New Orleans, LA",https://onebite.app/restaurant/pizza-delicious-new-orleans-la-d038017a,29.9623809,-90.0426763
202,Mid City Pizza,New Orleans, LA,4/4/22,6.8,7.4,26,4,224,"4400 Banks St, New Orleans, LA",https://onebite.app/restaurant/mid-city-pizza-new-orleans-la-d41c6d98,29.9742089,-90.1067296
203,A Little Bit of Philly,Virginia Gardens, FL,4/1/22,7.5,8.6,3,4.5,373,"3940 Curtiss Pkwy, Virginia Gardens, FL",https://onebite.app/restaurant/a-little-bit-of-philly-virginia-gardens-fl-aa925add,25.8100731,-80.2896427
204,Di Piazza Pizzeria and Resta...,Hialeah, FL,3/31/22,7.5,7.8,18,4,231,"1412 W 49th St, Hialeah, FL",https://onebite.app/restaurant/di-piazza-pizzeria-and-restaurant-hialeah-fl-57c495c7,25.8660906,-80.3110397
205,Domenico's Italian Restauran...,Miami Lakes, FL,3/30/22,6.1,7.3,6,3.5,145,"13975 NW 67th Ave, Miami Lakes, FL",https://onebite.app/restaurant/domenicos-italian-restaurant-miami-lakes-fl-c1094975,25.9005828,-80.30777510000001
206,Salvatore Pizza Pasta & Subs,Hialeah, FL,3/29/22,7.3,7.9,10,4.5,201,"1550 W 84th St, Hialeah, FL",https://onebite.app/restaurant/salvatore-pizza-pasta-and-subs-hialeah-fl-afc502b4,25.897586,-80.3145645
207,Four Seasons Hotel Philadelp...,Philadelphia, PA,3/25/22,6.1,7.1,2,4,45,"1 N 19th St, Philadelphia, PA",https://onebite.app/restaurant/four-seasons-hotel-philadelphia-at-comcast-center-philadelphia-pa-a7412f82,39.9551667,-75.1708455
208,'O Munaciello,Miami, FL,3/24/22,6.7,8.1,7,4.5,210,"6425 Biscayne Blvd, Miami, FL",https://onebite.app/restaurant/o-munaciello-miami-fl-9abaaeec,25.8351688,-80.1836051
209,Pizzeria Uno,Chicago, IL,3/23/22,7.8,7.6,39,3.5,"1,588","29 E Ohio St, Chicago, IL",https://onebite.app/restaurant/pizzeria-uno-chicago-il-95b0a9bc,41.8922845,-87.6269097
210,The Angelo Pizza,Philadelphia, PA,3/22/22,7.5,8.4,49,4.5,91,"229 Market St, Philadelphia, PA",https://onebite.app/restaurant/the-angelo-pizza-philadelphia-pa-404d0977,39.9502888,-75.1446988
211,Mix Bar and Grill,Philadelphia, PA,3/21/22,6.3,6.2,7,3,41,"2101 Chestnut St, Philadelphia, PA",https://onebite.app/restaurant/mix-bar-and-grill-philadelphia-pa-edd59e3c,39.9524435,-75.1757574
212,Pizzeria Vetri,Philadelphia, PA,3/18/22,6.8,7.5,33,4,695,"1939 Callowhill St, Philadelphia, PA",https://onebite.app/restaurant/pizzeria-vetri-philadelphia-pa-45725d12,39.9609007,-75.17121970000001
213,Angelo's To Go,Fort Lauderdale, FL,3/16/22,6.7,7.1,9,3,126,"15 N Federal Hwy, Fort Lauderdale, FL",https://onebite.app/restaurant/angelos-to-go-fort-lauderdale-fl-9079df20,26.122896,-80.1382898
214,Freehold Miami,Miami, FL,3/15/22,8.1,6.9,8,3.5,50,"2219 NW 2nd Ave, Miami, FL",https://onebite.app/restaurant/freehold-miami-miami-fl-530032a5,25.7984148,-80.19877389999999
215,Evio’s Pizza & Grill,Miami Beach, FL,3/14/22,6.8,7.2,2,4.5,30,"1616 Washington Ave, Miami Beach, FL",https://onebite.app/restaurant/evios-pizza-and-grill-miami-beach-fl-ee374e23,25.7897238,-80.1321291
216,PizzElla,Miami, FL,3/10/22,7.5,7.4,3,5,9,"2501 Biscayne Blvde, Miami, FL",https://onebite.app/restaurant/pizzella-miami-fl-071b60a6,25.8012028,-80.18894499999999
217,Basani's Pizzeria Trattoria,Miami, FL,3/9/22,6.4,7.5,5,3.5,87,"3221 NE 2nd Ave, Miami, FL",https://onebite.app/restaurant/basanis-pizzeria-trattoria-miami-fl-4d297b7e,25.8074109,-80.19094319999999
218,Contessa,Boston, MA,3/8/22,7.6,8.1,7,4,283,"3 Newbury St, Boston, MA",https://onebite.app/restaurant/contessa-boston-ma-796d2eb7,42.3527746,-71.0713646
219,Picco Pizza & Ice Cream,Boston, MA,3/7/22,8.5,8.2,73,4,"1,299","513 Tremont St, Boston, MA",https://onebite.app/restaurant/picco-pizza-and-ice-cream-boston-ma-34dc44d4,42.344874,-71.070494
220,Coppa Enoteca,Boston, MA,3/4/22,7.9,0.0,1,4,996,"253 Shawmut Ave, Boston, MA",https://onebite.app/restaurant/coppa-enoteca-boston-ma-67afb60b,42.3434455,-71.0687038
221,Cafe Podima,Boston, MA,3/3/22,5.2,7.2,5,3.5,172,"156 Cambridge St, Boston, MA",https://onebite.app/restaurant/cafe-podima-boston-ma-54612c87,42.3609887,-71.0647402
222,Sardinia Enoteca Ristorante,Miami Beach, FL,3/1/22,6.8,7.6,2,4,383,"1801 Purdy Ave, Miami Beach, FL",https://onebite.app/restaurant/sardinia-enoteca-ristorante-miami-beach-fl-3b5d4c86,25.7937387,-80.1441512
223,Stanzione 87,Miami, FL,2/28/22,7.2,7.2,13,4,310,"87 SW 8th St, Miami, FL",https://onebite.app/restaurant/stanzione-87-miami-fl-ec36ae87,25.7664653,-80.1950315
224,Riverside Market,Fort Lauderdale, FL,2/25/22,7.1,6.3,10,4.5,835,"608 SW 12th Ave, Fort Lauderdale, FL",https://onebite.app/restaurant/riverside-market-fort-lauderdale-fl-55593944,26.1137916,-80.157491
225,The Pizza Spot,Fort Lauderdale, FL,2/24/22,7.4,8.2,27,4.5,105,"601 SW 12th Ave, Fort Lauderdale, FL",https://onebite.app/restaurant/the-pizza-spot-fort-lauderdale-fl-4e2d9d5b,26.1140733,-80.15784459999999
226,123 Datura Bar & Kitchen,West Palm Beach, FL,2/23/22,7.2,5.6,3,3.5,73,"123 Datura St, West Palm Beach, FL",https://onebite.app/restaurant/123-datura-bar-and-kitchen-west-palm-beach-fl-dd5ad106,26.7125011,-80.0502336
227,Cugino's Italian Deli & Pizz...,Las Vegas, NV,2/22/22,6.8,7.8,125,4.5,"1,039","4550 S Maryland Pkwy, Las Vegas, NV",https://onebite.app/restaurant/cuginos-italian-deli-and-pizzeria-las-vegas-nv-00a25ded,36.106622,-115.136342
228,Hot Pie Pizza,West Palm Beach, FL,2/21/22,7.5,7.7,36,3.5,150,"123 S Olive Ave, West Palm Beach, FL",https://onebite.app/restaurant/hot-pie-pizza-west-palm-beach-fl-f17cfb21,26.7126512,-80.05211709999999
229,Editor Pizza,Miami Beach, FL,2/18/22,8.1,7.9,11,4.5,34,"803 5th St, Miami Beach, FL",https://onebite.app/restaurant/editor-pizza-miami-beach-fl-5af8e29c,25.7747594,-80.1363598
230,Grafton on Sunset,West Hollywood, CA,2/16/22,7.6,6.8,2,3,142,"8462 Sunset Blvd, West Hollywood, CA",https://onebite.app/restaurant/grafton-on-sunset-west-hollywood-ca-c3c70547,34.0943304,-118.37484
231,Apollonia's Pizzeria,Los Angeles, CA,2/15/22,8.2,8.3,50,4,752,"5176 Wilshire Blvd, Los Angeles, CA",https://onebite.app/restaurant/apollonias-pizzeria-los-angeles-ca-e7f3b074,34.0617749,-118.3427113
232,Big Mama's & Papa's Pizzeria,West Hollywood, CA,2/14/22,6.8,5.9,3,3,175,"8424 Santa Monica Blvd, West Hollywood, CA",https://onebite.app/restaurant/big-mamas-and-papas-pizzeria-west-hollywood-ca-3a3f7505,34.0904185,-118.3738229
233,Heirloom Pizzeria,Los Angeles, CA,2/11/22,7.6,9.3,14,5,115,"7368 Melrose Ave, Los Angeles, CA",https://onebite.app/restaurant/heirloom-pizzeria-los-angeles-ca-ac4873d4,34.0833209,-118.3505094
234,Pizzana - Los Angeles,Los Angeles, CA,2/10/22,6.8,7.7,20,4,"1,022","11712 San Vicente Blvd, Los Angeles, CA",https://onebite.app/restaurant/pizzana-los-angeles-los-angeles-ca-0a6cd476,34.0532691,-118.4660433
235,Lamonica's NY Pizza,Los Angeles, CA,2/9/22,6.6,8.0,32,4,"1,190","1066 Gayley Ave, Los Angeles, CA",https://onebite.app/restaurant/lamonicas-ny-pizza-los-angeles-ca-536c2b06,34.0609792,-118.4467814
236,Old Greg's Pizza,Miami, FL,2/7/22,8.2,8.1,14,4,149,"3620 NE 2nd Ave, Miami, FL",https://onebite.app/restaurant/old-gregs-pizza-miami-fl-b9f2fa29,25.8110609,-80.191484
237,Pizza Johny's,Miami, FL,2/4/22,7.5,7.5,20,4.5,599,"9529 SW 72nd St, Miami, FL",https://onebite.app/restaurant/pizza-johnys-miami-fl-59ae462d,25.7022116,-80.34867469999999
238,La Pizza,South Miami, FL,2/3/22,7.2,7.1,20,4,313,"5840 SW 71st St, South Miami, FL",https://onebite.app/restaurant/la-pizza-south-miami-fl-9e5030ba,25.704948,-80.288191
239,Gaetano's Pizzeria,Miami, FL,2/2/22,7.6,7.5,12,4.5,127,"9808 SW 77th Ave, Miami, FL",https://onebite.app/restaurant/gaetanos-pizzeria-miami-fl-4ad72720,25.679221,-80.3187102
240,Call Me Gaby,Miami Beach, FL,1/31/22,8.3,8.2,10,4,279,"22 Washington Ave, Miami Beach, FL",https://onebite.app/restaurant/call-me-gaby-miami-beach-fl-5f7ffce1,25.768864,-80.135706
241,Danny's Pizza Kitchen,Boynton Beach, FL,1/28/22,7.2,7.2,24,4.5,297,"3501 W Boynton Beach Blvd, Boynton Beach, FL",https://onebite.app/restaurant/dannys-pizza-kitchen-boynton-beach-fl-94d755c7,26.5278139,-80.0988096
242,Boynton Pizza,Boynton Beach, FL,1/27/22,7.4,7.4,35,4.5,165,"1455 W Boynton Beach Blvd, Boynton Beach, FL",https://onebite.app/restaurant/boynton-pizza-boynton-beach-fl-2ddd6d18,26.5281493,-80.0895173
243,Fantini's New Haven Style Ap...,Stuart, FL,1/26/22,8.1,8.3,62,4.5,169,"1560 NW Federal Hwy, Stuart, FL",https://onebite.app/restaurant/fantinis-new-haven-style-apizza-stuart-fl-a3ad00c1,27.2245397,-80.2653514
244,Mamma Mia's on the Beach,Lake Worth, FL,1/25/22,7.6,7.7,32,4,152,"10 S Ocean Blvd, Lake Worth, FL",https://onebite.app/restaurant/mamma-mias-on-the-beach-lake-worth-fl-49adbfcf,26.6146924,-80.0372062
245,LOCAL PIE,Miami, FL,1/24/22,7.4,8.6,26,4.5,429,"10716 SW 113th Pl, Miami, FL",https://onebite.app/restaurant/local-pie-miami-fl-a2941326,25.6687034,-80.3783776
246,Joey's,Miami, FL,1/21/22,7.2,7.4,10,3.5,608,"2506 NW 2nd Ave, Miami, FL",https://onebite.app/restaurant/joeys-miami-fl-75ec0a5a,25.8009174,-80.19925330000001
247,Massa Cafe Italiano,Elmwood Park, IL,1/19/22,7.4,8.0,9,4.5,304,"7434 W North Ave, Elmwood Park, IL",https://onebite.app/restaurant/massa-cafe-italiano-elmwood-park-il-cdbe3497,41.9089324,-87.81240059999999
248,Michael's Original Pizzeria ...,Chicago, IL,1/18/22,7.6,8.1,55,4.5,755,"4091 N Broadway St, Chicago, IL",https://onebite.app/restaurant/michaels-original-pizzeria-and-tavern-chicago-il-8a27a971,41.9568641,-87.6517353
249,Bongiorno's Italian Deli & P...,Chicago, IL,1/17/22,7.1,7.6,31,4.5,756,"405 N Wabash Ave, Chicago, IL",https://onebite.app/restaurant/bongiornos-italian-deli-and-pizzeria-chicago-il-45341ac2,41.8897222,-87.6257722
250,Tony + Benny's Authentic Bro...,East Elmhurst, NY,1/16/22,4.9,5.6,4,3.5,11,"LaGuardia Airport Terminal B, East Elmhurst, NY",https://onebite.app/restaurant/tony-bennys-authentic-brooklyn-pizzeria-east-elmhurst-ny-574ba59b,40.7743514,-73.87210979999999
251,Jimmy's Pizza Café,Chicago, IL,1/14/22,7.6,7.6,74,4,781,"2434 W Montrose Ave, Chicago, IL",https://onebite.app/restaurant/jimmys-pizza-cafe-chicago-il-eaf53c0c,41.9615397,-87.690125
252,Pizzeria Ora - Chicago Style...,Chicago, IL,1/13/22,7.3,8.1,16,3.5,185,"545 N La Salle Dr, Chicago, IL",https://onebite.app/restaurant/pizzeria-ora-chicago-style-pizza-chicago-il-3195a6f5,41.8921458,-87.6323409
253,Low Fidelity,Jersey City, NJ,1/12/22,7.3,8.2,19,4.5,172,"328 Palisade Ave, Jersey City, NJ",https://onebite.app/restaurant/low-fidelity-jersey-city-nj-c5b022b9,40.7398973,-74.0466969
254,Joe's Rotisseria,Roselle Park, NJ,1/11/22,7.2,7.8,38,4,244,"547 W Westfield Ave, Roselle Park, NJ",https://onebite.app/restaurant/joes-rotisseria-roselle-park-nj-57bf3194,40.6595146,-74.2813631
255,Chimney Rock Inn,Bound Brook, NJ,1/10/22,7.6,7.3,52,3.5,374,"800 Thompson Ave, Bound Brook, NJ",https://onebite.app/restaurant/chimney-rock-inn-bound-brook-nj-96ed01ea,40.5792611,-74.5564335
256,Pizzeria Portofino,Chicago, IL,1/7/22,7.1,7.8,25,3.5,534,"317 North Clark St, Chicago, IL",https://onebite.app/restaurant/pizzeria-portofino-chicago-il-99d709b5,41.8878849,-87.6308574
257,DeLucia's Brick Oven Pizza,Raritan, NJ,1/6/22,9.4,8.4,219,4,193,"3 1st Ave, Raritan, NJ",https://onebite.app/restaurant/delucias-brick-oven-pizza-raritan-nj-174cc193,40.5664311,-74.63791599999999
258,Planet Pizza,Orlando, FL,1/5/22,4.8,6.2,26,3,139,"14 W Washington St, Orlando, FL",https://onebite.app/restaurant/planet-pizza-orlando-fl-740e333b,28.543345,-81.3794904
259,Michael's Ali Coal Fired Piz...,Winter Garden, FL,1/3/22,6.9,7.5,35,4,114,"426 W Plant St, Winter Garden, FL",https://onebite.app/restaurant/michaels-ali-coal-fired-pizza-winter-garden-fl-c70d53f2,28.5641948,-81.5907867
260,PizzeRizzo,Kissimmee, FL,12/29/21,7.1,4.8,44,3.5,111,"Disney's Hollywood Studios Muppets Courtyard, Kissimmee, FL",https://onebite.app/restaurant/pizzerizzo-kissimmee-fl-9607568a,28.3549171,-81.5593511
261,McDonald's,Orlando, FL,12/28/21,2.9,3.5,15,3,474,"6875 Sandlake Rd, Orlando, FL",https://onebite.app/restaurant/mcdonalds-orlando-fl-4b2d861f,28.4503866,-81.4714142
262,Upper Crust Pizza,Celebration, FL,12/27/21,6.2,6.8,36,3.5,149,"606 Market St, Celebration, FL",https://onebite.app/restaurant/upper-crust-pizza-celebration-fl-2eca0f8b,28.3184312,-81.54091570000001
263,Pizza Bruno,Orlando, FL,12/23/21,7.5,7.9,76,4,688,"3990 Curry Ford Rd, Orlando, FL",https://onebite.app/restaurant/pizza-bruno-orlando-fl-b6d18cf1,28.5238219,-81.3353647
264,99 Cents Village Pizza,New York, NY,12/16/21,4.9,6.1,11,4,7,"333B Avenue Of The America, New York, NY",https://onebite.app/restaurant/99-cents-village-pizza-new-york-ny-f8e2e8cf,40.73145299999999,-74.00138199999999
265,Bella Pizza,Hasbrouck Heights, NJ,12/14/21,7.7,7.1,16,4,91,"197 Blvd, Hasbrouck Heights, NJ",https://onebite.app/restaurant/bella-pizza-hasbrouck-heights-nj-13f29599,40.85815530000001,-74.0806971
266,Natoli's,Secaucus, NJ,12/13/21,7.9,7.2,17,4.5,324,"300 Clarendon St, Secaucus, NJ",https://onebite.app/restaurant/natolis-secaucus-nj-e905bc5c,40.7950807,-74.0631922
267,Ilforno Pizza & Ristorante,Secaucus, NJ,12/10/21,6.8,7.6,9,3,72,"1536 Paterson Plank Rd, Secaucus, NJ",https://onebite.app/restaurant/ilforno-pizza-and-ristorante-secaucus-nj-3382f39f,40.7988794,-74.0582633
268,Pelham Pizza,Pelham, NY,12/7/21,7.8,7.9,38,4.5,190,"113 5th Ave, Pelham, NY",https://onebite.app/restaurant/pelham-pizza-pelham-ny-346fedb7,40.9127349,-73.8092127
269,Joe's Fleetwood Pizzeria,Mount Vernon, NY,12/3/21,8.1,8.1,36,4,125,"9 Broad St W, Mount Vernon, NY",https://onebite.app/restaurant/joes-fleetwood-pizzeria-mount-vernon-ny-93f164f3,40.9261163,-73.8361352
270,Dunwoodie Pizzeria & Restaur...,Yonkers, NY,12/2/21,8.2,7.9,59,4.5,97,"683 Yonkers Ave, Yonkers, NY",https://onebite.app/restaurant/dunwoodie-pizzeria-and-restaurant-yonkers-ny-c6f758a8,40.9246031,-73.8670145
271,99 Cent Delicious Pizza,New York, NY,11/30/21,4.9,6.2,7,3.5,29,"460 7th Ave, New York, NY",https://onebite.app/restaurant/99-cent-delicious-pizza-new-york-ny-5992613b,40.7516553,-73.9904349
272,Carnegie Pizza,New York, NY,11/29/21,7.6,7.9,51,4.5,196,"200 W 41st St, New York, NY",https://onebite.app/restaurant/carnegie-pizza-new-york-ny-f5196813,40.75534,-73.9879187
273,Rocco's Pizzeria,Avenel, NJ,11/26/21,7.6,7.6,19,4.5,70,"57 Avenel St, Avenel, NJ",https://onebite.app/restaurant/roccos-pizzeria-avenel-nj-2c097da5,40.5758829,-74.2724374
274,Benny’s Pizza,Woodbridge Township, NJ,11/25/21,7.3,8.0,29,4.5,66,"654 Amboy Ave, Woodbridge Township, NJ",https://onebite.app/restaurant/bennys-pizza-woodbridge-township-nj-e7868ac3,40.5627514,-74.2856262
275,Jersey Pizza Boys,Woodbridge Township, NJ,11/24/21,8.1,8.3,58,4,34,"147 Avenel St, Woodbridge Township, NJ",https://onebite.app/restaurant/jersey-pizza-boys-woodbridge-township-nj-16eca991,40.5767706,-74.27627799999999
276,Linwood Inn Taphouse and Piz...,Linden, NJ,11/22/21,8.2,8.4,67,4.5,224,"19 S Wood Ave, Linden, NJ",https://onebite.app/restaurant/linwood-inn-taphouse-and-pizza-linden-nj-c6293db6,40.6298378,-74.25000589999999
277,Ava’s Kitchen & Bar,Kenilworth, NJ,11/19/21,7.7,8.5,33,4,253,"1 N 21st St, Kenilworth, NJ",https://onebite.app/restaurant/avas-kitchen-and-bar-kenilworth-nj-c20db8e6,40.6763571,-74.291333
278,Amore Pizza,Denver, CO,11/16/21,7.2,6.6,12,3.5,91,"644 Santa Fe Dr, Denver, CO",https://onebite.app/restaurant/amore-pizza-denver-co-dbb0e9cb,39.7265362,-104.9983881
279,Imposto's Pizza,Hoboken, NJ,11/15/21,6.8,5.6,34,2.5,232,"102 Washington St, Hoboken, NJ",https://onebite.app/restaurant/impostos-pizza-hoboken-nj-f0d8b7ae,40.7376527,-74.0311135
280,Village Pizza of Rhinebeck,Rhinebeck, NY,11/12/21,7.2,7.0,18,3.5,88,"19 E Market St, Rhinebeck, NY",https://onebite.app/restaurant/village-pizza-of-rhinebeck-rhinebeck-ny-31b94742,41.9271441,-73.9119852
281,Pizzeria Posto,Rhinebeck, NY,11/10/21,8.2,8.6,48,4.5,219,"43 E Market St, Rhinebeck, NY",https://onebite.app/restaurant/pizzeria-posto-rhinebeck-ny-61821b26,41.9272234,-73.9112907
282,Butch's Grillacatessen & Eat...,Bloomington, IN,11/9/21,7.2,7.6,17,3.5,61,"120 E 7th St, Bloomington, IN",https://onebite.app/restaurant/butchs-grillacatessen-and-eatzeria-bloomington-in-4806aecd,39.1682542,-86.5327095
283,Rockit's Famous Pizza,Bloomington, IN,11/8/21,6.9,7.1,23,3.5,63,"222 N Walnut St, Bloomington, IN",https://onebite.app/restaurant/rockits-famous-pizza-bloomington-in-d3fbce6d,39.1682445,-86.5334098
284,Redeemer Pizza,Denver, CO,11/5/21,7.8,8.1,34,4.5,95,"2705 Larimer St, Denver, CO",https://onebite.app/restaurant/redeemer-pizza-denver-co-cec31b31,39.759777,-104.984096
285,Marquis Pizza,Denver, CO,11/3/21,6.7,7.2,43,4,286,"2009 Larimer St, Denver, CO",https://onebite.app/restaurant/marquis-pizza-denver-co-8cfb4c12,39.753333,-104.9925497
286,Joy Hill,Denver, CO,11/2/21,6.7,7.9,14,4.5,136,"1229 S Broadway, Denver, CO",https://onebite.app/restaurant/joy-hill-denver-co-27e7c5a9,39.6941904,-104.9878313
287,Marco's Coal Fired-Ballpark,Denver, CO,11/1/21,7.2,7.4,61,4,"1,351","2129 Larimer St, Denver, CO",https://onebite.app/restaurant/marcos-coal-firedballpark-denver-co-d57ac929,39.7545112,-104.9909852
288,Famous Original J's Pizza,Denver, CO,10/31/21,7.4,7.6,39,4,131,"715 E 26th Ave, Denver, CO",https://onebite.app/restaurant/famous-original-js-pizza-denver-co-1fd878ad,39.7547892,-104.9775161
289,Sliceworks,Denver, CO,10/28/21,7.2,7.3,73,4,565,"1433 17th St, Denver, CO",https://onebite.app/restaurant/sliceworks-denver-co-6609799a,39.7514038,-104.9975539
290,White Pie,Denver, CO,10/27/21,6.2,7.5,29,4.5,384,"1702 Humboldt St, Denver, CO",https://onebite.app/restaurant/white-pie-denver-co-82e469a2,39.74353079999999,-104.9694941
291,Blue Pan Pizza,Denver, CO,10/26/21,7.9,8.1,95,4.5,641,"3509 E 12th Ave, Denver, CO",https://onebite.app/restaurant/blue-pan-pizza-denver-co-042fa3dd,39.7353563,-104.9457811
292,DaVinci's PIzza,Knoxville, TN,10/25/21,6.7,6.5,25,3.5,55,"113 S Central St, Knoxville, TN",https://onebite.app/restaurant/davincis-pizza-knoxville-tn-930dcfcd,35.969806,-83.91845889999999
293,Barley's Taproom & Pizzeria,Knoxville, TN,10/22/21,7.2,7.2,28,3.5,200,"200 East Jackson Ave, Knoxville, TN",https://onebite.app/restaurant/barleys-taproom-and-pizzeria-knoxville-tn-861307ec,35.97088129999999,-83.9173107
294,South Coast Pizza,Knoxville, TN,10/21/21,6.6,7.2,48,4.5,94,"1103 Sevier Ave SE, Knoxville, TN",https://onebite.app/restaurant/south-coast-pizza-knoxville-tn-f3b73622,35.9595304,-83.9045596
295,Pizza Palace,Knoxville, TN,10/20/21,5.9,6.6,10,4,184,"3132 E Magnolia Ave, Knoxville, TN",https://onebite.app/restaurant/pizza-palace-knoxville-tn-860db108,35.9948733,-83.885768
296,Elidios's Pizza,Knoxville, TN,10/19/21,7.5,7.5,41,4.5,90,"6714 Central Ave Pike, Knoxville, TN",https://onebite.app/restaurant/elidioss-pizza-knoxville-tn-814e217d,36.0267926,-83.9920296
297,Uptown Pizzeria,Hoboken, NJ,10/18/21,7.6,7.6,18,3.5,86,"54 14th St, Hoboken, NJ",https://onebite.app/restaurant/uptown-pizzeria-hoboken-nj-78dc0d76,40.7533947,-74.0253072
298,Torna's Pizzeria,Hoboken, NJ,10/14/21,7.4,7.1,24,3.5,88,"254 9th St, Hoboken, NJ",https://onebite.app/restaurant/tornas-pizzeria-hoboken-nj-18da81ed,40.7479591,-74.0308912
299,Hot House Pizza,Hoboken, NJ,10/13/21,7.4,7.3,27,3.5,69,"606 2nd St, Hoboken, NJ",https://onebite.app/restaurant/hot-house-pizza-hoboken-nj-ab6eb914,40.7405072,-74.04008739999999
300,Jerusalem Cafe,New York, NY,10/12/21,6.8,7.0,3,2.5,39,"35 W 36th St, New York, NY",https://onebite.app/restaurant/jerusalem-cafe-new-york-ny-0e6f9a4a,40.7506286,-73.98534810000001
301,La Sicilia,Belleville, NJ,10/11/21,7.1,7.6,35,3.5,228,"155 Washington Ave, Belleville, NJ",https://onebite.app/restaurant/la-sicilia-belleville-nj-a33abf49,40.786445,-74.15348519999999
302,Joe's Famous Pizza,Vauxhall, NJ,10/7/21,7.9,8.1,82,3.5,170,"2062 Springfield Ave, Vauxhall, NJ",https://onebite.app/restaurant/joes-famous-pizza-vauxhall-nj-8afd89ea,40.7196838,-74.27793869999999
303,Turanos pizza kitchen,Liv, NJ,10/6/21,8.1,7.9,36,4,130,"69 E Northfield Rd, Liv, NJ",https://onebite.app/restaurant/turanos-pizza-kitchen-liv-nj-8317b097,40.7737556,-74.3209187
304,Bruno's Pizza & Restaurant,Clifton, NJ,10/5/21,7.3,7.4,44,3.5,222,"1006 US Hwy 46, Clifton, NJ",https://onebite.app/restaurant/brunos-pizza-and-restaurant-clifton-nj-2881cd9e,40.8741701,-74.1780337
305,Mr Z's,Key West, FL,10/4/21,7.1,7.5,43,4,467,"501 Southard St, Key West, FL",https://onebite.app/restaurant/mr-zs-key-west-fl-b1dfb06c,24.5550304,-81.8020031
306,Robert's Pizza and Dough,Chicago, IL,10/3/21,7.9,8.2,99,4.5,683,"465 N McClurg Ct, Chicago, IL",https://onebite.app/restaurant/roberts-pizza-and-dough-chicago-il-4c081a63,41.8905699,-87.6164505
307,Seaside Cafe at the Mansion,Key West, FL,10/1/21,7.4,7.9,42,4.5,467,"1400 Duval St, Key West, FL",https://onebite.app/restaurant/seaside-cafe-at-the-mansion-key-west-fl-66ffe354,24.5468315,-81.79651489999999
308,Da Pizza Dude,Chicago, IL,9/30/21,7.2,7.5,6,4.5,32,", Chicago, IL",https://onebite.app/restaurant/da-pizza-dude-chicago-il-bc6d605c,41.8781136,-87.6297982
309,Phil's Pizza,Chicago, IL,9/28/21,7.6,8.4,34,4,441,"1102 W 35th St, Chicago, IL",https://onebite.app/restaurant/phils-pizza-chicago-il-41d2bdff,41.8308849,-87.6536811
310,Rosangela's Pizza,Evergreen Park, IL,9/27/21,7.5,8.4,36,4,255,"2807 1/2 W 95th St, Evergreen Park, IL",https://onebite.app/restaurant/rosangelas-pizza-evergreen-park-il-0cd29d69,41.7205918,-87.6927601
311,Lombardo's of Bay Ridge,Brooklyn, NY,9/24/21,8.1,8.9,41,4.5,188,"279 71st St, Brooklyn, NY",https://onebite.app/restaurant/lombardos-of-bay-ridge-brooklyn-ny-39498c45,40.6344104,-74.0270223
312,Battle Hill Tavern,Brooklyn, NY,9/23/21,7.1,7.9,4,4.5,48,"686 6th Ave, Brooklyn, NY",https://onebite.app/restaurant/battle-hill-tavern-brooklyn-ny-40d764e5,40.6602377,-73.99133599999999
313,Giuseppina's,Brooklyn, NY,9/22/21,8.1,8.6,38,4.5,347,"691 6th Ave, Brooklyn, NY",https://onebite.app/restaurant/giuseppinas-brooklyn-ny-3ec3a243,40.6603977,-73.9905555
314,Luigi's Pizza,Brooklyn, NY,9/21/21,9.3,8.6,155,4.5,460,"686 5th Ave, Brooklyn, NY",https://onebite.app/restaurant/luigis-pizza-brooklyn-ny-1f83aaa3,40.6616518,-73.993402
315,Baby Luc’s,Brooklyn, NY,9/20/21,8.2,8.2,44,3,94,"387 Court St, Brooklyn, NY",https://onebite.app/restaurant/baby-lucs-brooklyn-ny-93ac61a1,40.6800223,-73.9967534
316,Spinelli's Pizzeria,New York, NY,9/17/21,6.8,6.9,11,3,27,"425 7th Ave, New York, NY",https://onebite.app/restaurant/spinellis-pizzeria-new-york-ny-3fa30190,40.7504175,-73.9907092
317,Trattoria Bianca,New York, NY,9/16/21,5.8,7.6,3,3,162,"481 8th Ave, New York, NY",https://onebite.app/restaurant/trattoria-bianca-new-york-ny-97d9fdd0,40.7526594,-73.9935627
318,Marble Room Steaks and Raw B...,Cleveland, OH,9/15/21,7.4,0.0,1,4.5,559,"623 Euclid Ave, Cleveland, OH",https://onebite.app/restaurant/marble-room-steaks-and-raw-bar-cleveland-oh-76d7050e,41.5001573,-81.68884609999999
319,Pizza 216,Cleveland, OH,9/14/21,7.3,7.3,97,4,336,"401 Euclid Ave, Cleveland, OH",https://onebite.app/restaurant/pizza-216-cleveland-oh-db2ed58b,41.5004161,-81.6907282
320,Angelo's Pizza,Lakewood, OH,9/13/21,7.1,7.6,73,4,910,"13715 Madison Ave, Lakewood, OH",https://onebite.app/restaurant/angelos-pizza-lakewood-oh-01833e80,41.4768362,-81.7882462
321,Buddy's Pizza - Ann Arbor,Ann Arbor, MI,9/11/21,7.5,7.2,34,4,200,"3153 Ann Arbor-Saline Rd, Ann Arbor, MI",https://onebite.app/restaurant/buddys-pizza-ann-arbor-ann-arbor-mi-7a9c16dd,42.2407577,-83.76877379999999
322,Uncle Oogie's,Sea Isle City, NJ,9/10/21,6.9,6.7,37,3,160,"6118 Landis Ave, Sea Isle City, NJ",https://onebite.app/restaurant/uncle-oogies-sea-isle-city-nj-84fdf9b9,39.1418508,-74.7027617
323,Pennsylvania 6 NYC,New York, NY,9/9/21,6.2,0.0,1,4,603,"132 W 31st St, New York, NY",https://onebite.app/restaurant/pennsylvania-6-nyc-new-york-ny-a5674c80,40.748243,-73.99077659999999
324,Phil's  Famous Pizzeria,Sea Isle City, NJ,9/7/21,7.6,7.8,45,3,48,"3712 Landis Ave, Sea Isle City, NJ",https://onebite.app/restaurant/phils-famous-pizzeria-sea-isle-city-nj-d1ec38b2,39.1578305,-74.68957670000002
325,Berardi Brothers Pizza,Sea Isle City, NJ,9/3/21,7.1,7.7,33,4,50,"4203 Landis Ave, Sea Isle City, NJ",https://onebite.app/restaurant/berardi-brothers-pizza-sea-isle-city-nj-563a17a4,39.154412,-74.6918606
326,Poppi's Brick Oven Pizza,Wildwood, NJ,9/2/21,6.8,7.3,49,4,477,"4709 New Jersey Ave, Wildwood, NJ",https://onebite.app/restaurant/poppis-brick-oven-pizza-wildwood-nj-f632ef0a,38.9845326,-74.8234114
327,Preps Pizzeria,Ocean City, NJ,9/1/21,7.1,7.5,87,4,131,"1004 Boardwalk, Ocean City, NJ",https://onebite.app/restaurant/preps-pizzeria-ocean-city-nj-3e4c144a,39.2742174,-74.5738101
328,Steak’em Up,North Wildwood, NJ,8/31/21,7.1,7.2,7,4,35,"17 Boardwalk, North Wildwood, NJ",https://onebite.app/restaurant/steakem-up-north-wildwood-nj-f83e2d55,38.9931439,-74.7978918
329,Sorrento II Pizzeria & Resta...,Wildwood, NJ,8/30/21,5.3,6.6,14,2,28,"2424 Boardwalk, Wildwood, NJ",https://onebite.app/restaurant/sorrento-ii-pizzeria-and-restaurant-wildwood-nj-96e8b130,38.990518,-74.802956
330,Mama Santa's,Cleveland, OH,8/28/21,7.6,7.8,59,3.5,394,"12301 Mayfield Rd, Cleveland, OH",https://onebite.app/restaurant/mama-santas-cleveland-oh-bdd0d993,41.5088571,-81.597248
331,Mack's Pizza,Wildwood, NJ,8/27/21,6.7,6.9,65,4,45,"3218 Boardwalk, Wildwood, NJ",https://onebite.app/restaurant/macks-pizza-wildwood-nj-9efb7e5a,38.9879577,-74.80905849999999
332,Sam's Pizza Palace,North Wildwood, NJ,8/26/21,7.9,7.5,213,4,322,"2600 Boardwalk, North Wildwood, NJ",https://onebite.app/restaurant/sams-pizza-palace-north-wildwood-nj-94c83c75,38.9902454,-74.8047888
333,The Brook Tap House,West Caldwell, NJ,8/24/21,8.2,8.5,50,3.5,115,"811 Passaic Ave, West Caldwell, NJ",https://onebite.app/restaurant/the-brook-tap-house-west-caldwell-nj-2f5bf5a4,40.86424909999999,-74.28437459999999
334,Max London's Restaurant,Saratoga Springs, NY,8/23/21,7.4,7.2,7,4,510,"466 Broadway, Saratoga Springs, NY",https://onebite.app/restaurant/max-londons-restaurant-saratoga-springs-ny-48565247,43.0829421,-73.7846686
335,Flatbread Social,Saratoga Springs, NY,8/20/21,6.9,6.7,12,4,70,"84 Henry St, Saratoga Springs, NY",https://onebite.app/restaurant/flatbread-social-saratoga-springs-ny-960ae415,43.0822088,-73.782121
336,DeFazio's Pizzeria,Troy, NY,8/19/21,8.2,8.3,118,4.5,398,"266 4th St, Troy, NY",https://onebite.app/restaurant/defazios-pizzeria-troy-ny-8b18aca4,42.7232157,-73.6905702
337,Paesan's Pizza,Latham, NY,8/18/21,7.5,7.5,45,3,51,"636 Loudon Rd, Latham, NY",https://onebite.app/restaurant/paesans-pizza-latham-ny-d94bcafc,42.732921,-73.7627708
338,Venezia Pizza & Pasta,Clifton Park, NY,8/17/21,7.4,7.1,30,4,93,"629 Plank Rd, Clifton Park, NY",https://onebite.app/restaurant/venezia-pizza-and-pasta-clifton-park-ny-ab61ace4,42.865414,-73.7766905
339,Napoli's Pizzeria,Malta, NY,8/16/21,7.5,7.6,42,4,34,"128 Dunning St, Malta, NY",https://onebite.app/restaurant/napolis-pizzeria-malta-ny-a0992352,42.97176229999999,-73.7920252
340,Pizza Time,Ballston Spa, NY,8/13/21,6.9,5.6,9,3.5,35,"420 Geyser Rd, Ballston Spa, NY",https://onebite.app/restaurant/pizza-time-ballston-spa-ny-0fc04c23,43.0478148,-73.8454672
341,Showfish,Montauk, NY,8/11/21,7.2,9.1,2,4,67,"32 Star Island Rd, Montauk, NY",https://onebite.app/restaurant/showfish-montauk-ny-29fd0eb8,41.0688295,-71.9328168
342,7-Eleven,Montauk, NY,8/9/21,3.8,4.4,7,3,12,"653 Montauk Hwy, Montauk, NY",https://onebite.app/restaurant/7eleven-montauk-ny-4224cb0b,41.0321167,-71.94944029999999
343,Sag Pizza,Sag Harbor, NY,8/5/21,6.8,6.2,32,2.5,235,"103 Main St, Sag Harbor, NY",https://onebite.app/restaurant/sag-pizza-sag-harbor-ny-7e2c2daa,40.999812,-72.2949902
344,D 'Andrea's Pizza,Saratoga Springs, NY,8/4/21,7.2,6.5,14,2.5,95,"33 Caroline St, Saratoga Springs, NY",https://onebite.app/restaurant/d-andreas-pizza-saratoga-springs-ny-d1e90132,43.08203090000001,-73.7832802
345,West Avenue Pizzeria,Saratoga Springs, NY,8/3/21,7.3,5.8,12,4,43,"99 West Ave, Saratoga Springs, NY",https://onebite.app/restaurant/west-avenue-pizzeria-saratoga-springs-ny-51b52499,43.0785084,-73.80562359999999
346,Time Market,Tucson, AZ,7/28/21,7.1,8.0,13,4,410,"444 E University Blvd, Tucson, AZ",https://onebite.app/restaurant/time-market-tucson-az-1f900c2d,32.2314089,-110.9643085
347,No Anchovies,Tucson, AZ,7/27/21,7.3,7.5,34,3.5,296,"870 E University Blvd, Tucson, AZ",https://onebite.app/restaurant/no-anchovies-tucson-az-32f3eaf1,32.231407,-110.9584407
348,Bazzarelli Restaurant,Moonachie, NJ,7/26/21,7.7,7.9,11,4,156,"117 Moonachie Rd, Moonachie, NJ",https://onebite.app/restaurant/bazzarelli-restaurant-moonachie-nj-d104427a,40.8405486,-74.04779839999999
349,Kenny's Castaways,Montauk, NY,7/23/21,7.4,0.0,3,3.5,36,"432 W Lake Dr, Montauk, NY",https://onebite.app/restaurant/kennys-castaways-montauk-ny-a0bfa7b5,41.0714998,-71.94203279999999
350,Blade + Salt,Montauk, NY,7/22/21,7.5,7.6,12,4.5,36,"54 S Erie Ave, Montauk, NY",https://onebite.app/restaurant/blade-salt-montauk-ny-07726b2e,41.0363571,-71.9444147
351,Ruschmeyer's,Montauk, NY,7/21/21,7.8,0.0,1,2,46,"161 2nd House Rd, Montauk, NY",https://onebite.app/restaurant/ruschmeyers-montauk-ny-b89af4f6,41.0396166,-71.9605335
352,Da Legna x Nolo,New Haven, CT,7/20/21,7.4,8.0,74,4,831,"687 State St, New Haven, CT",https://onebite.app/restaurant/da-legna-x-nolo-new-haven-ct-c0195a35,41.3100908,-72.91749779999999
353,Abate Apizza & Seafood Resta...,New Haven, CT,7/19/21,6.8,7.3,56,3.5,224,"129 Wooster St, New Haven, CT",https://onebite.app/restaurant/abate-apizza-and-seafood-restaurant-new-haven-ct-81b74320,41.3031495,-72.9160074
354,Zeneli Pizzeria & Cucina Nap...,New Haven, CT,7/16/21,7.2,8.3,61,5,381,"138 Wooster St, New Haven, CT",https://onebite.app/restaurant/zeneli-pizzeria-and-cucina-napoletana-new-haven-ct-54f3231d,41.3026451,-72.916319
355,Il Buco Alimentari & Vineria,New York, NY,7/15/21,7.7,7.9,2,3.5,595,"53 Great Jones St, New York, NY",https://onebite.app/restaurant/il-buco-alimentari-and-vineria-new-york-ny-415c9661,40.7264417,-73.9925756
356,Unregular Pizza,New York, NY,7/14/21,7.3,7.5,14,4.5,156,"135 4th Ave, New York, NY",https://onebite.app/restaurant/unregular-pizza-new-york-ny-9799892c,40.7336675,-73.9896018
357,Round Swamp Farm,Montauk, NY,7/13/21,7.3,0.0,1,3,8,"71 S Elmwood Ave, Montauk, NY",https://onebite.app/restaurant/round-swamp-farm-montauk-ny-c4d31da1,41.0342461,-71.9423801
358,Medusa Stone Fired Kitchen,Asbury Park, NJ,7/12/21,6.7,7.9,11,4.5,89,"711 4th Ave At Main St, Asbury Park, NJ",https://onebite.app/restaurant/medusa-stone-fired-kitchen-asbury-park-nj-217d65a0,40.2224865,-74.0110514
359,Johnny Mac House Of Spirits,Asbury Park, NJ,7/9/21,6.6,6.7,55,3.5,324,"208 Main St, Asbury Park, NJ",https://onebite.app/restaurant/johnny-mac-house-of-spirits-asbury-park-nj-db1c9009,40.21614599999999,-74.012913
360,Talula's,Asbury Park, NJ,7/8/21,7.1,7.8,52,4,851,"550 Cookman Ave, Asbury Park, NJ",https://onebite.app/restaurant/talulas-asbury-park-nj-0e39b8f6,40.2161597,-74.0095329
361,Sea Bright Pizza Restaurant,Sea Bright, NJ,7/7/21,7.6,7.6,44,3.5,116,"1066 Ocean Ave, Sea Bright, NJ",https://onebite.app/restaurant/sea-bright-pizza-restaurant-sea-bright-nj-20f170ba,40.3629052,-73.97442769999999
362,Tommy's Tavern and Tap,Sea Bright, NJ,7/6/21,7.2,7.5,46,3.5,505,"1030 Ocean Ave, Sea Bright, NJ",https://onebite.app/restaurant/tommys-tavern-and-tap-sea-bright-nj-780150c2,40.3641854,-73.9744845
363,Urban CoalHouse Pizza + Bar,Red Bank, NJ,7/2/21,7.7,7.9,38,3.5,231,"2 Bridge Ave, Red Bank, NJ",https://onebite.app/restaurant/urban-coalhouse-pizza-bar-red-bank-nj-41a50781,40.3500911,-74.07577069999999
364,Grana Pizza Cafe,Matawan, NJ,7/1/21,7.7,7.7,47,3.5,143,"25 Morristown Rd, Matawan, NJ",https://onebite.app/restaurant/grana-pizza-cafe-matawan-nj-3f1eb4f4,40.427604,-74.2505006
365,Brothers Pizzeria,East Brunswick, NJ,6/30/21,7.1,7.9,33,4.5,190,"1020 Rte 18 N, East Brunswick, NJ",https://onebite.app/restaurant/brothers-pizzeria-east-brunswick-nj-3a1914be,40.4173591,-74.369469
366,Mancini Pizza,East Brunswick, NJ,6/29/21,7.9,7.9,88,4,497,"293 S Rte 18, East Brunswick, NJ",https://onebite.app/restaurant/mancini-pizza-east-brunswick-nj-a95bd96f,40.4566661,-74.4017674
367,Maria's Pizza & Subs,Milltown, NJ,6/28/21,7.5,7.9,40,4,74,"119 N Main St, Milltown, NJ",https://onebite.app/restaurant/marias-pizza-and-subs-milltown-nj-0c7e25b6,40.4541013,-74.4409529
368,Brozinni Pizzeria at Speedwa...,Speedway, IN,6/24/21,7.4,7.6,11,4.5,86,"1067 N Main St, Speedway, IN",https://onebite.app/restaurant/brozinni-pizzeria-at-speedway-speedway-in-36f11e3c,39.78136749999999,-86.2403812
369,Pasquale's Pizza,Indianapolis, IN,6/23/21,6.7,6.2,3,4,36,"3623 W 16th St, Indianapolis, IN",https://onebite.app/restaurant/pasquales-pizza-indianapolis-in-0818c906,39.7874264,-86.22205230000002
370,Byrne's Grilled Pizza,Indianapolis, IN,6/22/21,7.1,7.0,14,4,184,"5615 N Illinois St, Indianapolis, IN",https://onebite.app/restaurant/byrnes-grilled-pizza-indianapolis-in-a429637b,39.8545589,-86.1592491
371,Giorgio's Pizza,Indianapolis, IN,6/21/21,7.4,6.6,41,4,213,"9 E Market St, Indianapolis, IN",https://onebite.app/restaurant/giorgios-pizza-indianapolis-in-c5781ad9,39.7683588,-86.1568982
372,DeSano Pizza Bakery,Nashville, TN,6/18/21,7.2,7.5,132,4.5,"1,085","115 16th Ave S, Nashville, TN",https://onebite.app/restaurant/desano-pizza-bakery-nashville-tn-05851706,36.1527621,-86.7925681
373,Joey's House Of Pizza,Nashville, TN,6/17/21,7.7,8.5,123,4.5,411,"897 Elm Hill Pike, Nashville, TN",https://onebite.app/restaurant/joeys-house-of-pizza-nashville-tn-ab739149,36.1440475,-86.74201060000001
374,Five Points Pizza,Nashville, TN,6/16/21,7.5,7.6,202,4.5,"1,461","1012 Woodland St, Nashville, TN",https://onebite.app/restaurant/five-points-pizza-nashville-tn-0f7fa2b5,36.177123,-86.7504962
375,Luigi's Famous Pizza ,Lincroft, NJ,6/14/21,8.1,7.7,63,3.5,86,"650 Newman Springs Rd, Lincroft, NJ",https://onebite.app/restaurant/luigis-famous-pizza-lincroft-nj-6c0f3830,40.3318662,-74.12037149999999
376,Nunzio's Pizzeria,Long Branch, NJ,6/11/21,8.6,8.6,54,4,70,"230 Westwood Ave, Long Branch, NJ",https://onebite.app/restaurant/nunzios-pizzeria-long-branch-nj-f2e57722,40.2970141,-73.98983799999999
377,The Galley Pizza & Eatery,Asbury Park, NJ,6/10/21,7.9,8.4,65,4.5,114,"1313 Memorial Dr, Asbury Park, NJ",https://onebite.app/restaurant/the-galley-pizza-and-eatery-asbury-park-nj-6f7c1471,40.2266565,-74.011185
378,Del Ponte's Coal Fired Pizza,Bradley Beach, NJ,6/9/21,8.2,8.2,68,4.5,206,"600 Main St, Bradley Beach, NJ",https://onebite.app/restaurant/del-pontes-coal-fired-pizza-bradley-beach-nj-87ac685e,40.20318899999999,-74.01757239999999
379,Vic's Italian Restaurant,Bradley Beach, NJ,6/8/21,8.3,8.1,161,4,380,"60 Main St, Bradley Beach, NJ",https://onebite.app/restaurant/vics-italian-restaurant-bradley-beach-nj-4f8e5d9b,40.1988119,-74.0191332
380,Squan Tavern,Manasquan, NJ,6/7/21,7.6,7.9,47,3.5,156,"15 Broad St, Manasquan, NJ",https://onebite.app/restaurant/squan-tavern-manasquan-nj-1e2107c0,40.1245187,-74.05135539999999
381,Rosie's Pizza,Point Pleasant Beach, NJ,6/4/21,8.5,8.6,188,4.5,188,"620 Bay Ave, Point Pleasant Beach, NJ",https://onebite.app/restaurant/rosies-pizza-point-pleasant-beach-nj-47d6d2a2,40.0898644,-74.0515734
382,Three Brothers From Italy,Seaside Heights, NJ,6/3/21,4.8,6.3,32,1.5,15,"413 Ocean Ter, Seaside Heights, NJ",https://onebite.app/restaurant/three-brothers-from-italy-seaside-heights-nj-5af5407d,39.94012439999999,-74.071182
383,Maruca's Tomato Pies,Seaside Heights, NJ,6/2/21,7.5,7.7,171,4,201,"601 Ocean Ter, Seaside Heights, NJ",https://onebite.app/restaurant/marucas-tomato-pies-seaside-heights-nj-d2d5765d,39.941147,-74.0710304
384,Nicholas Barrel & Roost,Red Bank, NJ,6/1/21,7.3,7.5,4,4,371,"160 NJ-35, Red Bank, NJ",https://onebite.app/restaurant/nicholas-barrel-and-roost-red-bank-nj-3f9cca00,40.3620349,-74.0809307
385,Noble Roman's Craft Pizza & ...,Westfield, IN,5/28/21,5.9,7.4,8,3.5,136,"17409 Wheeler Rd, Westfield, IN",https://onebite.app/restaurant/noble-romans-craft-pizza-and-pub-westfield-in-b0bb2f58,40.0415918,-86.1395995
386,Mother Bear's Pizza Campus,Bloomington, IN,5/26/21,6.1,7.7,50,4.5,756,"1428 E 3rd St, Bloomington, IN",https://onebite.app/restaurant/mother-bears-pizza-campus-bloomington-in-1fe32081,39.1640786,-86.51556939999999
387,Zoni's Coal Fired Pizza,Red Bank, NJ,5/25/21,7.2,7.9,44,4.5,242,"287 NJ-35, Red Bank, NJ",https://onebite.app/restaurant/zonis-coal-fired-pizza-red-bank-nj-d1fa14ef,40.3669535,-74.0833198
388,Stella 34 Trattoria,New York, NY,5/24/21,5.6,7.0,2,3.5,730,"151 West 34th St, New York, NY",https://onebite.app/restaurant/stella-34-trattoria-new-york-ny-f9d0e77e,40.7508631,-73.98906339999999
389,The Bread Factory Cafe,New York, NY,5/21/21,7.1,4.1,3,3,227,"470 7th Ave, New York, NY",https://onebite.app/restaurant/the-bread-factory-cafe-new-york-ny-ffea43f1,40.7521643,-73.9903073
390,Lazzaro Carved Meats,New York, NY,5/20/21,2.9,6.1,8,4,29,"110 Trinity Place, New York, NY",https://onebite.app/restaurant/lazzaro-carved-meats-new-york-ny-59fde9ed,40.7095045,-74.0120408
391,Inatteso Pizzabar,New York, NY,5/19/21,7.3,7.4,10,4,344,"28 West St, New York, NY",https://onebite.app/restaurant/inatteso-pizzabar-new-york-ny-d3a22c9d,40.72804319999999,-74.01046769999999
392,Benvenuti Pizzeria,New York, NY,5/18/21,5.9,6.4,13,3.5,58,"235 S End Ave, New York, NY",https://onebite.app/restaurant/benvenuti-pizzeria-new-york-ny-7f3e2ddd,40.70966260000001,-74.01675
393,Michael's Pastaria & Deli,Nutley, NJ,5/17/21,7.6,7.2,11,3,119,"143 Franklin Ave, Nutley, NJ",https://onebite.app/restaurant/michaels-pastaria-and-deli-nutley-nj-9c8552f8,40.8132246,-74.1642505
394,Amore Pizza by jack calandra,Nutley, NJ,5/14/21,7.9,8.2,44,3.5,36,"371 Centre St, Nutley, NJ",https://onebite.app/restaurant/amore-pizza-by-jack-calandra-nutley-nj-c161b1c3,40.8147686,-74.161953
395,The Pizza Terminal & Restaur...,Verona, NJ,5/13/21,7.8,8.2,77,3.5,207,"150 Bloomfield Ave, Verona, NJ",https://onebite.app/restaurant/the-pizza-terminal-and-restaurant-verona-nj-df0a7c0e,40.8260876,-74.2327778
396,Taormina Pizzeria,Paterson, NJ,5/12/21,7.4,8.5,16,4.5,23,"301 Madison Ave, Paterson, NJ",https://onebite.app/restaurant/taormina-pizzeria-paterson-nj-4e698e7b,40.9301722,-74.14989290000001
397,Patsy's Tavern & Restaurant,Paterson, NJ,5/11/21,8.2,8.4,111,4.5,142,"72 7th Ave, Paterson, NJ",https://onebite.app/restaurant/patsys-tavern-and-restaurant-paterson-nj-5fb2e8ac,40.9307362,-74.1530622
398,Tavolino Pizzeria ,Wallington, NJ,5/10/21,7.5,8.2,25,4,174,"435 Paterson Ave, Wallington, NJ",https://onebite.app/restaurant/tavolino-pizzeria-wallington-nj-45a745fd,40.8428975,-74.1048459
399,Spacca Napoli,Chicago, IL,5/7/21,7.1,8.2,35,4,"1,720","1769 W Sunnyside Ave, Chicago, IL",https://onebite.app/restaurant/spacca-napoli-chicago-il-1aa0f2a3,41.9631956,-87.67373839999999
400,Panera Bread,New York, NY,5/6/21,6.1,4.5,29,2,357,"452 5th Avenue, New York, NY",https://onebite.app/restaurant/panera-bread-new-york-ny-028930db,40.7520046,-73.9823463
401,Sauce & Barrel,New York, NY,5/5/21,7.3,7.8,38,4,558,"97 Washington St, New York, NY",https://onebite.app/restaurant/sauce-and-barrel-new-york-ny-d9e9c7bb,40.7080837,-74.0142765
402,Siena Pizza & Cannoli,New York, NY,5/4/21,6.4,7.5,16,4.5,87,"14 Rector St, New York, NY",https://onebite.app/restaurant/siena-pizza-and-cannoli-new-york-ny-1ef6a1b7,40.7080776,-74.0136934
403,Collins Pizza,Miami Beach, FL,5/3/21,7.2,6.4,4,4,84,"7308 Collins Ave, Miami Beach, FL",https://onebite.app/restaurant/collins-pizza-miami-beach-fl-25c09307,25.8587239,-80.1212017
404,Pizza Pazza,Miami, FL,4/30/21,7.3,7.3,12,3.5,286,"275 NE 18th St, Miami, FL",https://onebite.app/restaurant/pizza-pazza-miami-fl-a7151eab,25.7940475,-80.18933729999999
405,Eleventh Street Pizza,Miami, FL,4/29/21,8.2,8.4,35,3.5,96,"1035 N Miami Ave, Miami, FL",https://onebite.app/restaurant/eleventh-street-pizza-miami-fl-175bf763,25.7845163,-80.19382689999999
406,Lowbrow Pizza & Beer,Naples, FL,4/27/21,7.1,7.7,52,4.5,384,"3148 Tamiami Trl E, Naples, FL",https://onebite.app/restaurant/lowbrow-pizza-and-beer-naples-fl-597630de,26.1277524,-81.7684081
407,Industry Pizza & Slice Shop,Naples, FL,4/26/21,7.7,8.2,51,4.5,65,"2075 Pine Ridge Rd, Naples, FL",https://onebite.app/restaurant/industry-pizza-and-slice-shop-naples-fl-477c7092,26.212351,-81.7766541
408,Grandpa's Pizza,Bonita Springs, FL,4/23/21,7.8,8.2,90,4.5,166,"27030 Old 41 Rd, Bonita Springs, FL",https://onebite.app/restaurant/grandpas-pizza-bonita-springs-fl-9ce5495b,26.3450787,-81.7793109
409,Frankie's Pizza,Miami, FL,4/21/21,7.4,7.7,31,3.5,385,"9118 SW 40th St, Miami, FL",https://onebite.app/restaurant/frankies-pizza-miami-fl-7de3a4ba,25.7326932,-80.3429998
410,The Big Cheese Of Miami,Miami, FL,4/20/21,6.9,7.0,25,4,"1,024","8080 SW 67th Ave, Miami, FL",https://onebite.app/restaurant/the-big-cheese-of-miami-miami-fl-b44fce4c,25.6956605,-80.3014157
411,Cafe La Buca,Pompano Beach, FL,4/16/21,7.2,8.6,9,4,216,"451 S Cypress Rd, Pompano Beach, FL",https://onebite.app/restaurant/cafe-la-buca-pompano-beach-fl-080a1211,26.2245545,-80.1235465
412,Zuccarelli,Pompano Beach, FL,4/15/21,6.7,6.5,10,4.5,347,"1340 N Federal Hwy, Pompano Beach, FL",https://onebite.app/restaurant/zuccarelli-pompano-beach-fl-209c46a7,26.2490691,-80.1008487
413,Little Italian Pizza,Pompano Beach, FL,4/13/21,7.3,7.3,24,4.5,212,"448 S Cypress Rd, Pompano Beach, FL",https://onebite.app/restaurant/little-italian-pizza-pompano-beach-fl-1194d78a,26.2240727,-80.1226849
414,Banchero,Miami Beach, FL,4/12/21,6.8,9.3,2,4,75,"6995 Collins Ave, Miami Beach, FL",https://onebite.app/restaurant/banchero-miami-beach-fl-f69ba6c1,25.8560549,-80.12037579999999
415,Nonni's Pizza,Miami Beach, FL,4/9/21,6.7,5.1,5,3.5,251,"7105 Collins Ave, Miami Beach, FL",https://onebite.app/restaurant/nonnis-pizza-miami-beach-fl-f7ecb17c,25.8564185,-80.1202271
416,Prince Street Pizza,West Hollywood, CA,4/8/21,7.5,8.2,25,4,842,"9161 Sunset Blvd, West Hollywood, CA",https://onebite.app/restaurant/prince-street-pizza-west-hollywood-ca-352706a3,34.0908421,-118.3916408
417,Prime Pizza,Los Angeles, CA,4/7/21,8.1,7.6,83,4,624,"446 N Fairfax Ave, Los Angeles, CA",https://onebite.app/restaurant/prime-pizza-los-angeles-ca-7c97612c,34.079521,-118.3612497
418,L'Antica Pizzeria Da Michele,Los Angeles, CA,4/6/21,6.8,7.7,28,4.5,"1,623","1534 N Mccadden Pl, Los Angeles, CA",https://onebite.app/restaurant/lantica-pizzeria-da-michele-los-angeles-ca-0c381315,34.0990631,-118.3373217
419,Delicious Pizza,Los Angeles, CA,4/5/21,6.7,7.2,14,4,228,"6601 Sunset Blvd, Los Angeles, CA",https://onebite.app/restaurant/delicious-pizza-los-angeles-ca-797d98aa,34.09821240000001,-118.3333365
420,Aurelio's Pizza,Homewood, IL,4/1/21,6.8,8.0,22,4,333,"18162 Hardwood Ave, Homewood, IL",https://onebite.app/restaurant/aurelios-pizza-homewood-il-58eabb85,41.5594211,-87.6689055
421,PIZZANISTA! DTLA,Los Angeles, CA,4/1/21,7.1,7.7,40,4,"1,354","2019 E 7th St, Los Angeles, CA",https://onebite.app/restaurant/pizzanista-dtla-los-angeles-ca-95ba39c2,34.0348337,-118.2316019
422,Big Louie's,Pompano Beach, FL,4/1/21,7.1,6.7,25,2.5,143,"2190 N Federal Hwy, Pompano Beach, FL",https://onebite.app/restaurant/big-louies-pompano-beach-fl-0b3b35bb,26.2568221,-80.09973529999999
423,East Side Pizza,Miami, FL,4/1/21,6.8,7.1,9,3.5,259,"731 NE 79th St, Miami, FL",https://onebite.app/restaurant/east-side-pizza-miami-fl-b4c932fe,25.8481992,-80.1816283
424,Bonci,Chicago, IL,4/1/21,7.4,7.9,34,4.5,521,"161 N Sangamon St, Chicago, IL",https://onebite.app/restaurant/bonci-chicago-il-abea66b4,41.8848438,-87.6507725
425,Zazzy's Pizza,New York, NY,3/31/21,7.8,8.0,27,4,75,"75 Greenwich Ave, New York, NY",https://onebite.app/restaurant/zazzys-pizza-new-york-ny-2f2fcd34,40.7367065,-74.0014332
426,Pat's Pizza,Chicago, IL,3/30/21,7.8,7.8,69,4,527,"2679 N Lincoln Ave, Chicago, IL",https://onebite.app/restaurant/pats-pizza-chicago-il-90cb4768,41.93086230000001,-87.6557631
427,Arthur Avenue Wood Fired Piz...,Pleasantville, NY,3/29/21,7.6,8.6,32,4.5,89,"210 Marble Ave, Pleasantville, NY",https://onebite.app/restaurant/arthur-avenue-wood-fired-pizza-and-catering-pleasantville-ny-3228ab72,41.1265472,-73.7860737
428,Venice Pizza & Trattoria,White Plains, NY,3/26/21,7.3,7.8,24,4.5,114,"731 N Broadway, White Plains, NY",https://onebite.app/restaurant/venice-pizza-and-trattoria-white-plains-ny-7dc21fa0,41.0574592,-73.7663949
429,Villaggio Italiano Restauran...,Hartsdale, NY,3/25/21,7.4,7.2,20,3.5,113,"389 N Central Ave, Hartsdale, NY",https://onebite.app/restaurant/villaggio-italiano-restaurant-hartsdale-ny-1b86f1bc,41.03125259999999,-73.7896583
430,Avellino Pizza & Pasta,Hartsdale, NY,3/24/21,7.5,7.7,10,4,82,"15 E Hartsdale Ave, Hartsdale, NY",https://onebite.app/restaurant/avellino-pizza-and-pasta-hartsdale-ny-1670f9c5,41.0186017,-73.7978503
431,Raceway Pizzeria & Hero's,Yonkers, NY,3/23/21,7.4,8.5,25,4.5,67,"775 Yonkers Ave, Yonkers, NY",https://onebite.app/restaurant/raceway-pizzeria-and-heros-yonkers-ny-39cc88b4,40.9226771,-73.86363779999999
432,Vito & Nick's Pizzeria,Chicago, IL,3/22/21,8.1,8.2,125,4,"1,060","8433 S Pulaski Rd, Chicago, IL",https://onebite.app/restaurant/vito-and-nicks-pizzeria-chicago-il-c3f03ccc,41.7392664,-87.721238
433,Bar Cargo,Chicago, IL,3/19/21,7.6,7.4,40,4.5,267,"605 N Wells St, Chicago, IL",https://onebite.app/restaurant/bar-cargo-chicago-il-1a83b22f,41.8926586,-87.63380649999999
434,Coalfire Pizza,Chicago, IL,3/18/21,7.4,8.2,59,4.5,"1,184","1321 W Grand Ave, Chicago, IL",https://onebite.app/restaurant/coalfire-pizza-chicago-il-fffe631f,41.8908847,-87.65987299999999
435,Barnaby's of Northbrook,Northbrook, IL,3/17/21,7.8,7.8,51,3.5,366,"960 Skokie Blvd, Northbrook, IL",https://onebite.app/restaurant/barnabys-of-northbrook-northbrook-il-8c936ae3,42.1348828,-87.79026019999999
436,Salerno's Pizza of Chicago,Chicago, IL,3/16/21,7.1,7.3,15,3.5,396,"1201 W Grand Ave, Chicago, IL",https://onebite.app/restaurant/salernos-pizza-of-chicago-chicago-il-c931a663,41.89084709999999,-87.6576244
437,Chicago Pizza And Oven Grind...,Chicago, IL,3/15/21,7.1,8.1,45,4,"2,863","2121 N Clark St, Chicago, IL",https://onebite.app/restaurant/chicago-pizza-and-oven-grinder-company-chicago-il-9ce1e937,41.9207937,-87.6372894
438,The Art of Pizza,Chicago, IL,3/12/21,7.6,7.1,44,3.5,158,"727 S State St, Chicago, IL",https://onebite.app/restaurant/the-art-of-pizza-chicago-il-d77e581c,41.8723909,-87.62735409999999
439,Craft Pizza,Chicago, IL,3/11/21,7.7,7.8,40,4.5,310,"1252 N Damen Ave, Chicago, IL",https://onebite.app/restaurant/craft-pizza-chicago-il-896f1689,41.9048454,-87.6775072
440,Piece Brewery and Pizzeria,Chicago, IL,3/10/21,7.1,8.0,145,4,"3,790","1927 W North Ave, Chicago, IL",https://onebite.app/restaurant/piece-brewery-and-pizzeria-chicago-il-53fc1f1b,41.9102808,-87.6761093
441,Harry's Pizzeria - Design Di...,Miami, FL,3/9/21,7.1,7.3,9,4,617,"3918 N Miami Ave, Miami, FL",https://onebite.app/restaurant/harrys-pizzeria-design-district-miami-fl-78f7684f,25.8128859,-80.1956357
442,Pizza Rustica,Miami Beach, FL,3/8/21,6.8,7.1,2,5,2,"667 Lincoln Rd, Miami Beach, FL",https://onebite.app/restaurant/pizza-rustica-miami-beach-fl-c103e822,25.7907688,-80.1354475
443,Pizzette,Miami Beach, FL,3/5/21,7.9,7.9,18,4.5,141,"1223 Lincoln Rd, Miami Beach, FL",https://onebite.app/restaurant/pizzette-miami-beach-fl-886fc4fc,25.7905767,-80.14177289999999
444,Amarone,Aventura, FL,3/4/21,7.5,7.9,12,4.5,369,"15400 Biscayne Blvd, Aventura, FL",https://onebite.app/restaurant/amarone-aventura-fl-9c7a2682,25.9170959,-80.15676979999999
445,Outta Hand Pizza,Westfield, NJ,3/3/21,7.2,6.9,15,4,61,"311 South Ave W, Westfield, NJ",https://onebite.app/restaurant/outta-hand-pizza-westfield-nj-bb28e469,40.64866200000001,-74.34649
446,Capri Pizza,Kenilworth, NJ,3/2/21,7.2,7.2,16,4,85,"524 Blvd, Kenilworth, NJ",https://onebite.app/restaurant/capri-pizza-kenilworth-nj-4e54955f,40.67633379999999,-74.2911616
447,Three Guys From Italy,Kenilworth, NJ,3/1/21,7.4,7.9,16,3.5,80,"19 N 20th St, Kenilworth, NJ",https://onebite.app/restaurant/three-guys-from-italy-kenilworth-nj-f18d2741,40.6767778,-74.2922727
448,Brooklyn Pizza,Short Hills, NJ,2/26/21,7.9,7.1,33,3,25,"38 Chatham Rd, Short Hills, NJ",https://onebite.app/restaurant/brooklyn-pizza-short-hills-nj-64da6d48,40.7251735,-74.3251415
449,Arturo's,Maplewood, NJ,2/25/21,7.4,8.3,34,4.5,768,"180 Maplewood Ave, Maplewood, NJ",https://onebite.app/restaurant/arturos-maplewood-nj-1b8aacec,40.7304168,-74.2780397
450,Reservoir Restaurant,South Orange, NJ,2/24/21,7.6,8.2,36,4,177,"106 W South Orange Ave, South Orange, NJ",https://onebite.app/restaurant/reservoir-restaurant-south-orange-nj-3b451526,40.7467461,-74.2618473
451,Frank's Pizzeria,Newark, NJ,2/23/21,6.8,7.7,5,3,43,"161 Bloomfield Ave, Newark, NJ",https://onebite.app/restaurant/franks-pizzeria-newark-nj-6237315b,40.7590364,-74.17525880000001
452,Miami's Best Pizza,Coral Gables, FL,2/22/21,6.6,6.8,14,3.5,173,"5833 Ponce De Leon Blvd, Coral Gables, FL",https://onebite.app/restaurant/miamis-best-pizza-coral-gables-fl-14221c05,25.7104833,-80.28324239999999
453,Terre Del Sapore,Coral Gables, FL,2/19/21,7.3,7.5,10,4.5,128,"246 Giralda Ave, Coral Gables, FL",https://onebite.app/restaurant/terre-del-sapore-coral-gables-fl-491e2e5e,25.7510408,-80.25985469999999
454,Leo's Pizza,Miami, FL,2/18/21,6.7,7.7,10,4,119,"6720 Coral Way, Miami, FL",https://onebite.app/restaurant/leos-pizza-miami-fl-9178c6f9,25.7477702,-80.3043457
455,Apizza Brooklyn,Miami, FL,2/17/21,7.4,7.8,22,4,146,"5755 Bird Rd, Miami, FL",https://onebite.app/restaurant/apizza-brooklyn-miami-fl-6cac0761,25.7347788,-80.28802189999999
456,Pucci's Pizza,Miami, FL,2/16/21,6.7,7.0,17,3,250,"888 Biscayne Blvd, Miami, FL",https://onebite.app/restaurant/puccis-pizza-miami-fl-e8c5ee01,25.7821519,-80.19017319999999
457,New York Pizza & Restaurant,Miami, FL,2/15/21,6.7,7.9,9,4,141,"245 NE 14th St, Miami, FL",https://onebite.app/restaurant/new-york-pizza-and-restaurant-miami-fl-04075e66,25.7885449,-80.1898168
458,Ottava Via,Detroit, MI,2/12/21,6.8,8.1,10,4,805,"1400 Michigan Ave, Detroit, MI",https://onebite.app/restaurant/ottava-via-detroit-mi-7b3dd82a,42.33163529999999,-83.065695
459,Pie Sci,Detroit, MI,2/11/21,7.2,8.1,25,4.5,294,"5163 Trumbull Ave, Detroit, MI",https://onebite.app/restaurant/pie-sci-detroit-mi-d226099d,42.3539644,-83.0801003
460,Crispelli's Bakery & Pizzeri...,Berkley, MI,2/10/21,7.3,7.8,32,4,601,"28939 Woodward Ave, Berkley, MI",https://onebite.app/restaurant/crispellis-bakery-and-pizzeria-berkley-mi-6c939eba,42.50272040000001,-83.172395
461,Fredi The PizzaMan,Melvindale, MI,2/8/21,8.7,8.7,162,4.5,106,"17900 Allen Rd, Melvindale, MI",https://onebite.app/restaurant/fredi-the-pizzaman-melvindale-mi-4bdbab45,42.2853434,-83.18438929999999
462,Alibi,Troy, MI,2/7/21,6.9,7.3,17,3.5,444,"6700 Rochester Rd, Troy, MI",https://onebite.app/restaurant/alibi-troy-mi-9bc19628,42.6187212,-83.129514
463,Detroit Style Pizza Company,Saint Clair Shores, MI,2/5/21,8.1,8.0,54,3.5,141,"28630 Harper Ave, Saint Clair Shores, MI",https://onebite.app/restaurant/detroit-style-pizza-company-saint-clair-shores-mi-5031afdf,42.5041841,-82.8970472
464,Green Lantern Pizza,Madison Heights, MI,2/4/21,6.2,7.5,25,4,355,"28960 John R Rd, Madison Heights, MI",https://onebite.app/restaurant/green-lantern-pizza-madison-heights-mi-b7fe0370,42.50456519999999,-83.1054334
465,Joe's Pizza,Ann Arbor, MI,2/3/21,7.7,7.9,45,4.5,152,"1107 S University Ave, Ann Arbor, MI",https://onebite.app/restaurant/joes-pizza-ann-arbor-mi-c06decee,42.2752527,-83.7355609
466,NeoPapalis,Ann Arbor, MI,2/2/21,7.3,7.2,20,4.5,326,"500 E William St, Ann Arbor, MI",https://onebite.app/restaurant/neopapalis-ann-arbor-mi-7e2c33c5,42.2776846,-83.7429525
467,Cloverleaf Bar & Restaurant,Eastpointe, MI,2/1/21,7.5,8.1,30,4,242,"24443 Gratiot Ave, Eastpointe, MI",https://onebite.app/restaurant/cloverleaf-bar-and-restaurant-eastpointe-mi-d9131b34,42.4746319,-82.9520462
468,Bell's Greek Pizza,East Lansing, MI,1/29/21,6.9,6.8,14,4,73,"1135 E Grand River Ave, East Lansing, MI",https://onebite.app/restaurant/bells-greek-pizza-east-lansing-mi-855462cc,42.7313364,-84.4681738
469,Georgio's Pizza,East Lansing, MI,1/28/21,6.8,6.0,20,4,103,"120 Charles St, East Lansing, MI",https://onebite.app/restaurant/georgios-pizza-east-lansing-mi-b739d8bd,42.7346975,-84.4788669
470,Detroit Frankie's Wood Fired...,Lansing, MI,1/27/21,7.5,8.3,25,5,82,"644 Migaldi Ln, Lansing, MI",https://onebite.app/restaurant/detroit-frankies-wood-fired-brick-oven-lansing-mi-e3ba6840,42.7401412,-84.6781654
471,Deluca's Restaurant,Lansing, MI,1/26/21,7.3,7.3,15,4,232,"2006 W Willow St, Lansing, MI",https://onebite.app/restaurant/delucas-restaurant-lansing-mi-75697c60,42.7487864,-84.578667
472,Tomatoes Apizza,Farmington Hills, MI,1/25/21,7.8,8.1,53,4.5,448,"29275 14 Mile Rd, Farmington Hills, MI",https://onebite.app/restaurant/tomatoes-apizza-farmington-hills-mi-246f6154,42.5284555,-83.3384849
473,Mootz Pizzeria + Bar,Detroit, MI,1/22/21,7.1,7.5,68,4.5,344,"1230 Library St, Detroit, MI",https://onebite.app/restaurant/mootz-pizzeria-bar-detroit-mi-dcab4d55,42.3343317,-83.0467299
474,Niki's Pizza,Detroit, MI,1/21/21,7.3,7.1,32,3.5,275,"735 Beaubien St, Detroit, MI",https://onebite.app/restaurant/nikis-pizza-detroit-mi-eaf433ce,42.3337828,-83.04200689999999
475,Supino Pizzeria,Detroit, MI,1/20/21,7.5,8.3,125,4.5,984,"2457 Russell St, Detroit, MI",https://onebite.app/restaurant/supino-pizzeria-detroit-mi-f3c28c13,42.3453763,-83.04024849999999
476,Piazza Di Pizza,Moonachie, NJ,1/19/21,6.8,6.9,7,3.5,46,"87 Moonachie Rd, Moonachie, NJ",https://onebite.app/restaurant/piazza-di-pizza-moonachie-nj-e9366622,40.8414079,-74.0467886
477,Café Villa,Chatham, NJ,1/18/21,7.1,6.7,8,3.5,39,"465 Main St, Chatham, NJ",https://onebite.app/restaurant/cafe-villa-chatham-nj-6a1fc7e6,40.74342499999999,-74.3906583
478,Calabria Restaurant & Pizzer...,Livingston, NJ,1/15/21,8.9,8.2,185,3,220,"588 S Livingston Ave, Livingston, NJ",https://onebite.app/restaurant/calabria-restaurant-and-pizzeria-livingston-nj-9f2e9adc,40.7734736,-74.32598279999999
479,Buon Pane Italiano Bakery,Miami Beach, FL,1/14/21,6.9,7.6,5,4.5,165,"729 5th St, Miami Beach, FL",https://onebite.app/restaurant/buon-pane-italiano-bakery-miami-beach-fl-874099c8,25.7747699,-80.1356131
480,Fratelli La Bufala,Miami Beach, FL,1/13/21,6.8,8.1,13,4,"1,011","437 Washington Ave, Miami Beach, FL",https://onebite.app/restaurant/fratelli-la-bufala-miami-beach-fl-f5fb4a6b,25.7743042,-80.1340069
481,Pizza De Miami,Miami Beach, FL,1/12/21,4.2,7.5,18,4,87,"601 Collins Ave, Miami Beach, FL",https://onebite.app/restaurant/pizza-de-miami-miami-beach-fl-e1e669bb,25.7756603,-80.1324897
482,Giotto,Miami Beach, FL,1/11/21,7.8,7.8,12,4,250,"959 W Ave, Miami Beach, FL",https://onebite.app/restaurant/giotto-miami-beach-fl-de9834d9,25.7798299,-80.1417259
483,Nino's Restaurant & Pizzeria,Lodi, NJ,1/8/21,6.8,5.8,7,3.5,51,"300 Harrison Ave, Lodi, NJ",https://onebite.app/restaurant/ninos-restaurant-and-pizzeria-lodi-nj-ecea987d,40.8759096,-74.0957596
484,Lodi Pizza Restaurant,Lodi, NJ,1/7/21,7.8,7.8,62,4,110,"19 US Highway 46 W, Lodi, NJ",https://onebite.app/restaurant/lodi-pizza-restaurant-lodi-nj-4d7f5faf,40.8848699,-74.08796269999999
485,Santoni's Ristorante & Pizze...,Garfield, NJ,1/6/21,7.3,7.8,21,3.5,86,"42 Outwater Ln, Garfield, NJ",https://onebite.app/restaurant/santonis-ristorante-and-pizzeria-garfield-nj-e28605f2,40.8803535,-74.1170796
486,Barcelona's Restaurant & Bar,Garfield, NJ,1/4/21,7.4,7.7,19,3.5,81,"38 Harrison Ave, Garfield, NJ",https://onebite.app/restaurant/barcelonas-restaurant-and-bar-garfield-nj-768b824a,40.868469,-74.1032882
487,Ferazzoli's Italian Kitchen,Rutherford, NJ,12/30/20,7.4,7.8,29,4,276,"317 Union Ave, Rutherford, NJ",https://onebite.app/restaurant/ferazzolis-italian-kitchen-rutherford-nj-7b395729,40.8360575,-74.1135697
488,Sac's Place,Astoria, NY,12/29/20,7.5,8.1,28,4,553,"3511 35th Ave, Astoria, NY",https://onebite.app/restaurant/sacs-place-astoria-ny-21194423,40.7565983,-73.92467979999999
489,Marabella Pizza,Sunnyside, NY,12/28/20,7.8,8.2,23,3.5,143,"41-07 Greenpoint Ave, Sunnyside, NY",https://onebite.app/restaurant/marabella-pizza-sunnyside-ny-790d489d,40.7402753,-73.9238457
490,Roma Pizzeria,North Bergen, NJ,12/24/20,7.9,8.2,18,4,51,"8620 Kennedy Blvd, North Bergen, NJ",https://onebite.app/restaurant/roma-pizzeria-north-bergen-nj-06fc0828,40.808203,-74.0080469
491,Josie's Pizzeria Catering & ...,Lyndhurst, NJ,12/23/20,7.6,7.8,29,3.5,56,"228 Stuyvesant Ave, Lyndhurst, NJ",https://onebite.app/restaurant/josies-pizzeria-catering-and-restaurant-lyndhurst-nj-372b239c,40.81559120000001,-74.1250168
492,Ninos Aq,Astoria, NY,12/22/20,6.8,7.7,2,4,227,"35-01 Ditmars Blvd, Astoria, NY",https://onebite.app/restaurant/ninos-aq-astoria-ny-691ef431,40.7749243,-73.9086208
493,Trattoria L'incontro,Astoria, NY,12/21/20,8.4,6.9,9,4.5,"1,081","21-76 31st St, Astoria, NY",https://onebite.app/restaurant/trattoria-lincontro-astoria-ny-f10f3435,40.7764679,-73.91061350000001
494,Aumm Aumm Pizzeria & Wine Ba...,North Bergen, NJ,12/18/20,6.9,8.0,12,4.5,395,"7701 Broadway, North Bergen, NJ",https://onebite.app/restaurant/aumm-aumm-pizzeria-and-wine-bar-north-bergen-nj-3d49a807,40.7979165,-74.0023602
495,Perfect Pizza,North Bergen, NJ,12/17/20,8.5,8.0,63,4.5,72,"6229 Kennedy Blvd, North Bergen, NJ",https://onebite.app/restaurant/perfect-pizza-north-bergen-nj-10c70b05,40.7935289,-74.0198906
496,Tony Novante's Pizzeria & Wi...,Union City, NJ,12/16/20,6.8,6.9,8,3,135,"4601 Park Ave, Union City, NJ",https://onebite.app/restaurant/tony-novantes-pizzeria-and-wing-boss-union-city-nj-d3993989,40.7781106,-74.0175598
497,Trattoria Napoli,Union City, NJ,12/15/20,6.7,7.4,4,4.5,163,"4525 Broadway, Union City, NJ",https://onebite.app/restaurant/trattoria-napoli-union-city-nj-0d731364,40.7795455,-74.02375119999999
498,Death by Pizza,New York, NY,12/11/20,7.4,7.0,9,,,"44 9th Ave, New York, NY",https://onebite.app/restaurant/death-by-pizza-new-york-ny-c911f708,40.7410115,-74.0048657
499,Pasta by Hudson,New York, NY,12/10/20,6.8,7.3,2,4.5,101,"180 7th Ave, New York, NY",https://onebite.app/restaurant/pasta-by-hudson-new-york-ny-469f7c29,40.7427486,-73.9969892
500,Renato's Pizza Masters,Jersey City, NJ,12/9/20,8.1,7.4,40,4,460,"278 Central Ave, Jersey City, NJ",https://onebite.app/restaurant/renatos-pizza-masters-jersey-city-nj-2ed91254,40.74421,-74.0501416
501,Palermo's Cafe & Bakery,Little Ferry, NJ,12/7/20,7.4,7.4,9,3.5,203,"389 Liberty St, Little Ferry, NJ",https://onebite.app/restaurant/palermos-cafe-and-bakery-little-ferry-nj-fc401dd7,40.856325,-74.04243459999999
502,Lido's Restaurant,Hackensack, NJ,12/4/20,8.1,8.0,95,3.5,243,"701 Main St, Hackensack, NJ",https://onebite.app/restaurant/lidos-restaurant-hackensack-nj-24a7ab90,40.9012076,-74.0416939
503,Brooklyn's Brick Oven Pizzer...,Hackensack, NJ,12/3/20,7.9,8.1,57,4,430,"161 Hackensack Ave, Hackensack, NJ",https://onebite.app/restaurant/brooklyns-brick-oven-pizzeria-hackensack-nj-fa8cbf8b,40.900473,-74.03623189999999
504,Curioni's,Lodi, NJ,12/2/20,7.7,8.2,27,4.5,65,"80 Liberty St, Lodi, NJ",https://onebite.app/restaurant/curionis-lodi-nj-f594ddb3,40.8752522,-74.08285049999999
505,Urban Tomato,Palisades Park, NJ,12/1/20,8.1,7.9,58,4.5,169,"435 E Brinkerhoff Ave, Palisades Park, NJ",https://onebite.app/restaurant/urban-tomato-palisades-park-nj-3e8f1c07,40.8408421,-73.9875311
506,Napoli Wood Fired Pizza & Ba...,Cliffside Park, NJ,11/30/20,7.8,8.2,26,4.5,235,"702 Anderson Ave, Cliffside Park, NJ",https://onebite.app/restaurant/napoli-wood-fired-pizza-and-bakery-cliffside-park-nj-ef6df545,40.8285363,-73.986148
507,Trattoria La Sorrentina,North Bergen, NJ,11/27/20,7.5,8.3,22,4.5,642,"7831 Bergenline Ave, North Bergen, NJ",https://onebite.app/restaurant/trattoria-la-sorrentina-north-bergen-nj-36b653fa,40.8017289,-74.0069911
508,Cesare's Ristorante,Bristol, PA,11/25/20,8.1,8.2,88,3,72,"1407 Radcliffe St, Bristol, PA",https://onebite.app/restaurant/cesares-ristorante-bristol-pa-6078fd0d,40.1028302,-74.8431204
509,Tony & Joe's Pizzeria,Conshohocken, PA,11/24/20,7.3,7.4,47,3.5,133,"203 Fayette St, Conshohocken, PA",https://onebite.app/restaurant/tony-and-joes-pizzeria-conshohocken-pa-483dd65d,40.0747212,-75.3050858
510,Campus Corner Pizza,Villanova, PA,11/23/20,6.9,6.8,29,4,116,"829 E Lancaster Ave, Villanova, PA",https://onebite.app/restaurant/campus-corner-pizza-villanova-pa-d78abed4,40.03590730000001,-75.34769849999999
511,Randazzo's Pizzeria,Philadelphia, PA,11/19/20,7.4,7.1,17,4,168,"1826 S St, Philadelphia, PA",https://onebite.app/restaurant/randazzos-pizzeria-philadelphia-pa-fd0b7b42,39.9443953,-75.1728126
512,Philly Style Pizza and Grill...,Philadelphia, PA,11/18/20,6.8,7.1,21,3.5,29,"2010 N Broad St, Philadelphia, PA",https://onebite.app/restaurant/philly-style-pizza-and-grille-philadelphia-pa-adec96cf,39.9836862,-75.1571489
513,Amici Vicinato,Lafayette Hill, PA,11/17/20,6.6,7.1,11,3,35,"435 Germantown Pike, Lafayette Hill, PA",https://onebite.app/restaurant/amici-vicinato-lafayette-hill-pa-5dc0431d,40.091435,-75.2591984
514,Café Carmela,Philadelphia, PA,11/16/20,7.3,8.1,39,4.5,150,"2859 Holme Ave, Philadelphia, PA",https://onebite.app/restaurant/cafe-carmela-philadelphia-pa-858aa80f,40.0571449,-75.0303251
515,Charlie's Pizzeria,Philadelphia, PA,11/12/20,7.6,8.6,38,4,66,"4300 Roosevelt Blvd, Philadelphia, PA",https://onebite.app/restaurant/charlies-pizzeria-philadelphia-pa-2fe98eba,40.0299681,-75.1052614
